[ {
  "zip" : "11235",
  "date" : "2017-07-14T00:00:00",
  "entity_name" : "AHSAN INC.",
  "city" : "BROOKLYN",
  "type_of_base" : "LIVERY BASE",
  "latitude" : "40.63575",
  "telephone_number" : "7184342230",
  "shl_endorsed" : "Yes",
  "building" : "1702",
  "license_number" : "B00987",
  "street" : "AVENUE Z",
  "location" : {
    "latitude" : "40.63575",
    "human_address" : "{\"address\":\"\",\"city\":\"\",\"state\":\"\",\"zip\":\"\"}",
    "needs_recoding" : false,
    "longitude" : "-73.962804"
  },
  "state" : "NY",
  "time" : "17:00:10",
  "longitude" : "-73.962804"
}
, {
  "zip" : "11354",
  "date" : "2017-07-14T00:00:00",
  "entity_name" : "DADDY LIMO INC",
  "city" : "FLUSHING",
  "type_of_base" : "LIVERY BASE",
  "latitude" : "40.764583",
  "telephone_number" : "7183331234",
  "shl_endorsed" : "No",
  "building" : "33-70",
  "license_number" : "B02753",
  "street" : "PRINCE STREET  #603",
  "location" : {
    "latitude" : "40.764583",
    "human_address" : "{\"address\":\"\",\"city\":\"\",\"state\":\"\",\"zip\":\"\"}",
    "needs_recoding" : false,
    "longitude" : "-73.83384"
  },
  "state" : "NY",
  "time" : "17:00:10",
  "longitude" : "-73.83384"
}
, {
  "zip" : "11105",
  "date" : "2017-07-14T00:00:00",
  "entity_name" : "ATHENIAN LIMO INC",
  "city" : "ASTORIA",
  "type_of_base" : "LIVERY BASE",
  "latitude" : "40.778662",
  "telephone_number" : "7182747000",
  "shl_endorsed" : "Yes",
  "building" : "22-06",
  "license_number" : "B01594",
  "street" : "CRESCENT STREET",
  "location" : {
    "latitude" : "40.778662",
    "human_address" : "{\"address\":\"\",\"city\":\"\",\"state\":\"\",\"zip\":\"\"}",
    "needs_recoding" : false,
    "longitude" : "-73.91488"
  },
  "state" : "NY",
  "time" : "17:00:10",
  "longitude" : "-73.91488"
}
, {
  "zip" : "10025",
  "date" : "2017-07-14T00:00:00",
  "entity_name" : "TWO WAY BLACK CARS & RAD GRP",
  "city" : "NEW YORK",
  "type_of_base" : "LIVERY BASE",
  "latitude" : "40.797215",
  "telephone_number" : "2126633333",
  "shl_endorsed" : "No",
  "building" : "2642",
  "license_number" : "B01743",
  "street" : "BROADWAY  3 FL",
  "location" : {
    "latitude" : "40.797215",
    "human_address" : "{\"address\":\"\",\"city\":\"\",\"state\":\"\",\"zip\":\"\"}",
    "needs_recoding" : false,
    "longitude" : "-73.96941"
  },
  "state" : "NY",
  "time" : "17:00:10",
  "longitude" : "-73.96941"
}
, {
  "zip" : "11218",
  "date" : "2017-07-14T00:00:00",
  "entity_name" : "CHURCH AVE C/S INC",
  "city" : "BROOKLYN",
  "type_of_base" : "LIVERY BASE",
  "latitude" : "40.64171",
  "telephone_number" : "7186334444",
  "shl_endorsed" : "No",
  "building" : "3411",
  "license_number" : "B01146",
  "street" : "14 AVENUE",
  "location" : {
    "latitude" : "40.64171",
    "human_address" : "{\"address\":\"\",\"city\":\"\",\"state\":\"\",\"zip\":\"\"}",
    "needs_recoding" : false,
    "longitude" : "-73.981345"
  },
  "state" : "NY",
  "time" : "17:00:10",
  "longitude" : "-73.981345"
}
, {
  "zip" : "11229",
  "date" : "2017-07-14T00:00:00",
  "entity_name" : "CONCORDE EXP OF N.Y. INC",
  "city" : "BROOKLYN",
  "type_of_base" : "LIVERY BASE",
  "latitude" : "40.610532",
  "telephone_number" : "7186455555",
  "shl_endorsed" : "No",
  "building" : "1611",
  "license_number" : "B01751",
  "street" : "EAST   19 STREET",
  "location" : {
    "latitude" : "40.610532",
    "human_address" : "{\"address\":\"\",\"city\":\"\",\"state\":\"\",\"zip\":\"\"}",
    "needs_recoding" : false,
    "longitude" : "-73.954634"
  },
  "state" : "NY",
  "time" : "17:00:10",
  "longitude" : "-73.954634"
}
, {
  "zip" : "11221",
  "date" : "2017-07-14T00:00:00",
  "entity_name" : "NATASHAS GRP CAR CORP",
  "city" : "BROOKLYN",
  "type_of_base" : "LIVERY BASE",
  "latitude" : "40.694835",
  "telephone_number" : "7185740155",
  "shl_endorsed" : "No",
  "building" : "372",
  "license_number" : "B00932",
  "street" : "WILSON AVENUE",
  "location" : {
    "latitude" : "40.694835",
    "human_address" : "{\"address\":\"\",\"city\":\"\",\"state\":\"\",\"zip\":\"\"}",
    "needs_recoding" : false,
    "longitude" : "-73.915817"
  },
  "state" : "NY",
  "time" : "17:00:10",
  "longitude" : "-73.915817"
}
, {
  "zip" : "11235",
  "date" : "2017-07-14T00:00:00",
  "entity_name" : "SHORE TRANSPORTATION INC",
  "city" : "BROOKLYN",
  "type_of_base" : "LIVERY BASE",
  "latitude" : "40.57861",
  "telephone_number" : "7186466666",
  "shl_endorsed" : "No",
  "building" : "3173",
  "license_number" : "B01482",
  "street" : "CONEY ISLAND AVENUE",
  "location" : {
    "latitude" : "40.57861",
    "human_address" : "{\"address\":\"\",\"city\":\"\",\"state\":\"\",\"zip\":\"\"}",
    "needs_recoding" : false,
    "longitude" : "-73.95948"
  },
  "state" : "NY",
  "time" : "17:00:10",
  "longitude" : "-73.95948"
}
, {
  "zip" : "11106",
  "date" : "2017-07-14T00:00:00",
  "entity_name" : "GRAND LIMO & CAR SERVICE INC.",
  "city" : "ASTORIA",
  "type_of_base" : "LIVERY BASE",
  "latitude" : "40.755937",
  "telephone_number" : "7184334255",
  "shl_endorsed" : "Yes",
  "building" : "36-07",
  "license_number" : "B01848",
  "street" : "32 STREET",
  "location" : {
    "latitude" : "40.755937",
    "human_address" : "{\"address\":\"\",\"city\":\"\",\"state\":\"\",\"zip\":\"\"}",
    "needs_recoding" : false,
    "longitude" : "-73.92898"
  },
  "state" : "NY",
  "time" : "17:00:10",
  "longitude" : "-73.92898"
}
, {
  "zip" : "11385",
  "date" : "2017-07-14T00:00:00",
  "entity_name" : "FENIX CAR SVCE CORP",
  "city" : "RIDGEWOOD",
  "type_of_base" : "LIVERY BASE",
  "latitude" : "40.704206",
  "telephone_number" : "7188212121",
  "shl_endorsed" : "No",
  "building" : "586",
  "license_number" : "B01386",
  "street" : "SENECA AVENUE",
  "location" : {
    "latitude" : "40.704206",
    "human_address" : "{\"address\":\"\",\"city\":\"\",\"state\":\"\",\"zip\":\"\"}",
    "needs_recoding" : false,
    "longitude" : "-73.91033"
  },
  "state" : "NY",
  "time" : "17:00:10",
  "longitude" : "-73.91033"
}
, {
  "zip" : "11214",
  "date" : "2017-07-14T00:00:00",
  "entity_name" : "SHOWTIME 3 CORP",
  "city" : "BROOKLYN",
  "type_of_base" : "BLACK CAR BASE",
  "latitude" : "40.598869",
  "telephone_number" : "7186160600",
  "shl_endorsed" : "No",
  "building" : "2165",
  "license_number" : "B02985",
  "street" : "BATH AVENUE",
  "location" : {
    "latitude" : "40.598869",
    "human_address" : "{\"address\":\"\",\"city\":\"\",\"state\":\"\",\"zip\":\"\"}",
    "needs_recoding" : false,
    "longitude" : "-73.997566"
  },
  "state" : "NY",
  "time" : "17:00:10",
  "longitude" : "-73.997566"
}
, {
  "zip" : "11223",
  "date" : "2017-07-14T00:00:00",
  "entity_name" : "ALEX EXP C/L INC",
  "city" : "BROOKLYN",
  "type_of_base" : "LIVERY BASE",
  "latitude" : "40.605508",
  "telephone_number" : "7189989800",
  "shl_endorsed" : "No",
  "building" : "275",
  "license_number" : "B01398",
  "street" : "KINGS HIGHWAY",
  "location" : {
    "latitude" : "40.605508",
    "human_address" : "{\"address\":\"\",\"city\":\"\",\"state\":\"\",\"zip\":\"\"}",
    "needs_recoding" : false,
    "longitude" : "-73.98043"
  },
  "state" : "NY",
  "time" : "17:00:10",
  "longitude" : "-73.98043"
}
, {
  "zip" : "11101",
  "date" : "2017-07-14T00:00:00",
  "entity_name" : "LAST RADIO GROUP CORP.",
  "city" : "LONG ISLAND CIT",
  "type_of_base" : "BLACK CAR BASE",
  "latitude" : "40.638477",
  "telephone_number" : "7189376677",
  "shl_endorsed" : "No",
  "building" : "32-72",
  "license_number" : "B00236",
  "street" : "GALE AVE",
  "location" : {
    "latitude" : "40.638477",
    "human_address" : "{\"address\":\"\",\"city\":\"\",\"state\":\"\",\"zip\":\"\"}",
    "needs_recoding" : false,
    "longitude" : "-73.983333"
  },
  "state" : "NY",
  "time" : "17:00:10",
  "longitude" : "-73.983333"
}
, {
  "zip" : "11375",
  "date" : "2017-07-14T00:00:00",
  "entity_name" : "MASADA II C/L SVC INC",
  "city" : "REGO PARK",
  "type_of_base" : "LIVERY BASE",
  "latitude" : "40.727542",
  "telephone_number" : "7188059090",
  "shl_endorsed" : "No",
  "building" : "63-51",
  "license_number" : "B01244",
  "street" : "AUSTIN STREET",
  "location" : {
    "latitude" : "40.727542",
    "human_address" : "{\"address\":\"\",\"city\":\"\",\"state\":\"\",\"zip\":\"\"}",
    "needs_recoding" : false,
    "longitude" : "-73.86449"
  },
  "state" : "NY",
  "time" : "17:00:10",
  "longitude" : "-73.86449"
}
, {
  "zip" : "11374",
  "date" : "2017-07-14T00:00:00",
  "entity_name" : "HANNAH MEDTRANS INC.",
  "city" : "REGO PARK",
  "type_of_base" : "PARATRANSIT BASE",
  "latitude" : "40.725572",
  "telephone_number" : "3477227706",
  "shl_endorsed" : "No",
  "building" : "97-11",
  "license_number" : "B90712",
  "street" : "64 ROAD  LOWER FLOOR",
  "location" : {
    "latitude" : "40.725572",
    "human_address" : "{\"address\":\"\",\"city\":\"\",\"state\":\"\",\"zip\":\"\"}",
    "needs_recoding" : false,
    "longitude" : "-73.862489"
  },
  "state" : "NY",
  "time" : "17:00:10",
  "longitude" : "-73.862489"
}
, {
  "zip" : "11238",
  "date" : "2017-07-14T00:00:00",
  "entity_name" : "EVELYN CAR SERVICE INC",
  "city" : "BROOKLYN",
  "type_of_base" : "LIVERY BASE",
  "latitude" : "40.67995",
  "telephone_number" : "7182308244",
  "shl_endorsed" : "No",
  "building" : "587",
  "license_number" : "B01148",
  "street" : "VANDERBILT AVENUE",
  "location" : {
    "latitude" : "40.67995",
    "human_address" : "{\"address\":\"\",\"city\":\"\",\"state\":\"\",\"zip\":\"\"}",
    "needs_recoding" : false,
    "longitude" : "-73.96778"
  },
  "state" : "NY",
  "time" : "17:00:10",
  "longitude" : "-73.96778"
}
, {
  "zip" : "11364",
  "date" : "2017-07-14T00:00:00",
  "entity_name" : "YUNTONG TRANSPORTATION",
  "city" : "OAKLAND GARDENS",
  "type_of_base" : "PARATRANSIT BASE",
  "latitude" : "40.748513",
  "telephone_number" : "7182297555",
  "shl_endorsed" : "No",
  "building" : "56-16",
  "license_number" : "B90679",
  "street" : "208TH STREET",
  "location" : {
    "latitude" : "40.748513",
    "human_address" : "{\"address\":\"\",\"city\":\"\",\"state\":\"\",\"zip\":\"\"}",
    "needs_recoding" : false,
    "longitude" : "-73.770367"
  },
  "state" : "NY",
  "time" : "17:00:10",
  "longitude" : "-73.770367"
}
, {
  "zip" : "11355",
  "date" : "2017-07-14T00:00:00",
  "entity_name" : "RED COLOR VAN SERVICE INC",
  "city" : "FLUSHING",
  "type_of_base" : "COMMUTER VAN AUTHORITY BASE",
  "latitude" : "40.758114",
  "telephone_number" : "2125296060",
  "shl_endorsed" : "No",
  "building" : "133-56",
  "license_number" : "B80211",
  "street" : "41 AVENUE",
  "location" : {
    "latitude" : "40.758114",
    "human_address" : "{\"address\":\"\",\"city\":\"\",\"state\":\"\",\"zip\":\"\"}",
    "needs_recoding" : false,
    "longitude" : "-73.829623"
  },
  "state" : "NY",
  "time" : "17:00:10",
  "longitude" : "-73.829623"
}
, {
  "zip" : "11354",
  "date" : "2017-07-14T00:00:00",
  "entity_name" : "DIDI TRANSPORTATION INC.",
  "city" : "FLUSHING",
  "type_of_base" : "LIVERY BASE",
  "latitude" : "40.755756",
  "telephone_number" : "7186613888",
  "shl_endorsed" : "No",
  "building" : "131-10",
  "license_number" : "B02649",
  "street" : "40 ROAD  2ND FLR",
  "location" : {
    "latitude" : "40.755756",
    "human_address" : "{\"address\":\"\",\"city\":\"\",\"state\":\"\",\"zip\":\"\"}",
    "needs_recoding" : false,
    "longitude" : "-73.836021"
  },
  "state" : "NY",
  "time" : "17:00:10",
  "longitude" : "-73.836021"
}
, {
  "zip" : "11434",
  "date" : "2017-07-14T00:00:00",
  "entity_name" : "CEDI TRANSPORTATION SVC",
  "city" : "JAMAICA",
  "type_of_base" : "COMMUTER VAN AUTHORITY BASE",
  "latitude" : "40.683336",
  "telephone_number" : "7185230705",
  "shl_endorsed" : "No",
  "building" : "161-36",
  "license_number" : "B80148",
  "street" : "118 AVENUE",
  "location" : {
    "latitude" : "40.683336",
    "human_address" : "{\"address\":\"\",\"city\":\"\",\"state\":\"\",\"zip\":\"\"}",
    "needs_recoding" : false,
    "longitude" : "-73.782901"
  },
  "state" : "NY",
  "time" : "17:00:10",
  "longitude" : "-73.782901"
}
, {
  "zip" : "10309",
  "date" : "2017-07-14T00:00:00",
  "entity_name" : "N.J.M.INC.",
  "city" : "STATEN ISLAND",
  "type_of_base" : "LIVERY BASE",
  "latitude" : "40.546918",
  "telephone_number" : "7189672500",
  "shl_endorsed" : "No",
  "building" : "566",
  "license_number" : "B00972",
  "street" : "INDUSTRIAL LOOP",
  "location" : {
    "latitude" : "40.546918",
    "human_address" : "{\"address\":\"\",\"city\":\"\",\"state\":\"\",\"zip\":\"\"}",
    "needs_recoding" : false,
    "longitude" : "-74.23034"
  },
  "state" : "NY",
  "time" : "17:00:10",
  "longitude" : "-74.23034"
}
, {
  "zip" : "11210",
  "date" : "2017-07-14T00:00:00",
  "entity_name" : "ELBRUS AMBULETTE INC.",
  "city" : "BROOKLYN",
  "type_of_base" : "PARATRANSIT BASE",
  "latitude" : "40.634502",
  "telephone_number" : "7184998800",
  "shl_endorsed" : "No",
  "building" : "4214",
  "license_number" : "B90674",
  "street" : "GLENWOOD ROAD",
  "location" : {
    "latitude" : "40.634502",
    "human_address" : "{\"address\":\"\",\"city\":\"\",\"state\":\"\",\"zip\":\"\"}",
    "needs_recoding" : false,
    "longitude" : "-73.935807"
  },
  "state" : "NY",
  "time" : "17:00:10",
  "longitude" : "-73.935807"
}
, {
  "zip" : "11234",
  "date" : "2017-07-14T00:00:00",
  "entity_name" : "ALEXIS VAN LINES INC",
  "city" : "BROOKLYN",
  "type_of_base" : "COMMUTER VAN AUTHORITY BASE",
  "latitude" : "40.618436",
  "telephone_number" : "7183380131",
  "shl_endorsed" : "No",
  "building" : "3712",
  "license_number" : "B80145",
  "street" : "FLATLANDS AVENUE  2F",
  "location" : {
    "latitude" : "40.618436",
    "human_address" : "{\"address\":\"\",\"city\":\"\",\"state\":\"\",\"zip\":\"\"}",
    "needs_recoding" : false,
    "longitude" : "-73.939214"
  },
  "state" : "NY",
  "time" : "17:00:10",
  "longitude" : "-73.939214"
}
, {
  "zip" : "10461",
  "date" : "2017-07-14T00:00:00",
  "entity_name" : "CITYWIDE MOBILE RESPONSE CORP",
  "city" : "BRONX",
  "type_of_base" : "PARATRANSIT BASE",
  "latitude" : "40.855619",
  "telephone_number" : "7185976100",
  "shl_endorsed" : "No",
  "building" : "1624",
  "license_number" : "B90097",
  "street" : "STILLWELL AVENUE",
  "location" : {
    "latitude" : "40.855619",
    "human_address" : "{\"address\":\"\",\"city\":\"\",\"state\":\"\",\"zip\":\"\"}",
    "needs_recoding" : false,
    "longitude" : "-73.839821"
  },
  "state" : "NY",
  "time" : "17:00:10",
  "longitude" : "-73.839821"
}
, {
  "zip" : "10018",
  "date" : "2017-07-14T00:00:00",
  "entity_name" : "GO MY SEDAN LLC",
  "city" : "NEW YORK",
  "type_of_base" : "BLACK CAR BASE",
  "latitude" : "40.753913",
  "telephone_number" : "2124340400",
  "shl_endorsed" : "No",
  "building" : "1430",
  "license_number" : "B02990",
  "street" : "BROADWAY  RM507",
  "location" : {
    "latitude" : "40.753913",
    "human_address" : "{\"address\":\"\",\"city\":\"\",\"state\":\"\",\"zip\":\"\"}",
    "needs_recoding" : false,
    "longitude" : "-73.986417"
  },
  "state" : "NY",
  "time" : "17:00:10",
  "longitude" : "-73.986417"
}
, {
  "zip" : "11101",
  "date" : "2017-07-14T00:00:00",
  "entity_name" : "TEL AVIV CAR & LIMOUSINE SERVICE INC.",
  "city" : "LIC",
  "type_of_base" : "LIVERY BASE",
  "latitude" : "40.745471",
  "telephone_number" : "2125050555",
  "shl_endorsed" : "No",
  "building" : "43-23",
  "license_number" : "B02390",
  "street" : "35 STREET",
  "location" : {
    "latitude" : "40.745471",
    "human_address" : "{\"address\":\"\",\"city\":\"\",\"state\":\"\",\"zip\":\"\"}",
    "needs_recoding" : false,
    "longitude" : "-73.929332"
  },
  "state" : "NY",
  "time" : "17:00:10",
  "longitude" : "-73.929332"
}
, {
  "zip" : "10018",
  "date" : "2017-07-14T00:00:00",
  "entity_name" : "GROUNDLINK HOLDINGS LLC",
  "city" : "NEW YORK",
  "type_of_base" : "LUXURY/LIMOUSINE",
  "latitude" : "40.760951",
  "telephone_number" : "2127877777",
  "shl_endorsed" : "No",
  "building" : "134",
  "license_number" : "B02468",
  "street" : "WEST   37 STREET  2FL.",
  "location" : {
    "latitude" : "40.760951",
    "human_address" : "{\"address\":\"\",\"city\":\"\",\"state\":\"\",\"zip\":\"\"}",
    "needs_recoding" : false,
    "longitude" : "-73.931034"
  },
  "state" : "NY",
  "time" : "17:00:10",
  "longitude" : "-73.931034"
}
, {
  "zip" : "10001",
  "date" : "2017-07-14T00:00:00",
  "entity_name" : "SIEBEN-NY,LLC",
  "city" : "NEW YORK",
  "type_of_base" : "BLACK CAR BASE",
  "latitude" : "40.75242",
  "telephone_number" : "6466653597",
  "shl_endorsed" : "No",
  "building" : "636",
  "license_number" : "B02864",
  "street" : "WEST   28 STREET",
  "location" : {
    "latitude" : "40.75242",
    "human_address" : "{\"address\":\"\",\"city\":\"\",\"state\":\"\",\"zip\":\"\"}",
    "needs_recoding" : false,
    "longitude" : "-74.006218"
  },
  "state" : "NY",
  "time" : "17:00:10",
  "longitude" : "-74.006218"
}
, {
  "zip" : "07652",
  "date" : "2017-07-14T00:00:00",
  "entity_name" : "EUROPE LIMOUSINE SERVICE INC",
  "city" : "PARAMUS",
  "type_of_base" : "LUXURY/LIMOUSINE",
  "latitude" : "40.922042",
  "telephone_number" : "2014773200",
  "shl_endorsed" : "No",
  "building" : "24",
  "license_number" : "B01854",
  "street" : "FARVIEW TERRACE",
  "location" : {
    "latitude" : "40.922042",
    "human_address" : "{\"address\":\"\",\"city\":\"\",\"state\":\"\",\"zip\":\"\"}",
    "needs_recoding" : false,
    "longitude" : "-74.069773"
  },
  "state" : "NJ",
  "time" : "17:00:10",
  "longitude" : "-74.069773"
}
, {
  "zip" : "11235",
  "date" : "2017-07-14T00:00:00",
  "entity_name" : "VOLGA TRANSP CORP",
  "city" : "BROOKLYN",
  "type_of_base" : "PARATRANSIT BASE",
  "latitude" : "40.593221",
  "telephone_number" : "7187437979",
  "shl_endorsed" : "No",
  "building" : "2407",
  "license_number" : "B90395",
  "street" : "AVENUE X",
  "location" : {
    "latitude" : "40.593221",
    "human_address" : "{\"address\":\"\",\"city\":\"\",\"state\":\"\",\"zip\":\"\"}",
    "needs_recoding" : false,
    "longitude" : "-73.946019"
  },
  "state" : "NY",
  "time" : "17:00:10",
  "longitude" : "-73.946019"
}
, {
  "zip" : "11205",
  "date" : "2017-07-14T00:00:00",
  "entity_name" : "NEW BELL LUXURY CORP",
  "city" : "BROOKLYN",
  "type_of_base" : "BLACK CAR BASE",
  "latitude" : "40.694109",
  "telephone_number" : "7182304490",
  "shl_endorsed" : "No",
  "building" : "628",
  "license_number" : "B02826",
  "street" : "MYRTLE AVENUE",
  "location" : {
    "latitude" : "40.694109",
    "human_address" : "{\"address\":\"\",\"city\":\"\",\"state\":\"\",\"zip\":\"\"}",
    "needs_recoding" : false,
    "longitude" : "-73.958852"
  },
  "state" : "NY",
  "time" : "17:00:10",
  "longitude" : "-73.958852"
}
, {
  "zip" : "11691",
  "date" : "2017-07-14T00:00:00",
  "entity_name" : "LIFECARE AMBULETTE INC.",
  "city" : "FAR ROCKAWAY",
  "type_of_base" : "PARATRANSIT BASE",
  "latitude" : "40.610014",
  "telephone_number" : "6462104014",
  "shl_endorsed" : "Yes",
  "building" : "1224",
  "license_number" : "B90042",
  "street" : "BRUNSWICK AVENUE",
  "location" : {
    "latitude" : "40.610014",
    "human_address" : "{\"address\":\"\",\"city\":\"\",\"state\":\"\",\"zip\":\"\"}",
    "needs_recoding" : false,
    "longitude" : "-73.748686"
  },
  "state" : "NY",
  "time" : "17:00:10",
  "longitude" : "-73.748686"
}
, {
  "zip" : "11355",
  "date" : "2017-07-14T00:00:00",
  "entity_name" : "CAPRICE CAR SERVICE NO.2 INC.",
  "city" : "FLUSHING",
  "type_of_base" : "LIVERY BASE",
  "latitude" : "40.755545",
  "telephone_number" : "7184603434",
  "shl_endorsed" : "No",
  "building" : "147-15",
  "license_number" : "B01045",
  "street" : "45 AVENUE",
  "location" : {
    "latitude" : "40.755545",
    "human_address" : "{\"address\":\"\",\"city\":\"\",\"state\":\"\",\"zip\":\"\"}",
    "needs_recoding" : false,
    "longitude" : "-73.814929"
  },
  "state" : "NY",
  "time" : "17:00:10",
  "longitude" : "-73.814929"
}
, {
  "zip" : "11229",
  "date" : "2017-07-14T00:00:00",
  "entity_name" : "ART'S PLACE INC.",
  "city" : "BROOKLYN",
  "type_of_base" : "LIVERY BASE",
  "latitude" : "40.599389",
  "telephone_number" : "7189342222",
  "shl_endorsed" : "No",
  "building" : "2077",
  "license_number" : "B01653",
  "street" : "EAST   16 STREET",
  "location" : {
    "latitude" : "40.599389",
    "human_address" : "{\"address\":\"\",\"city\":\"\",\"state\":\"\",\"zip\":\"\"}",
    "needs_recoding" : false,
    "longitude" : "-73.95554"
  },
  "state" : "NY",
  "time" : "17:00:10",
  "longitude" : "-73.95554"
}
, {
  "zip" : "10304",
  "date" : "2017-07-14T00:00:00",
  "entity_name" : "MIC-LOU CAR SERVICES_LLC",
  "city" : "STATEN ISLAND",
  "type_of_base" : "LIVERY BASE",
  "latitude" : "40.615388",
  "telephone_number" : "7184426444",
  "shl_endorsed" : "No",
  "building" : "480",
  "license_number" : "B02661",
  "street" : "TARGEE STREET",
  "location" : {
    "latitude" : "40.615388",
    "human_address" : "{\"address\":\"\",\"city\":\"\",\"state\":\"\",\"zip\":\"\"}",
    "needs_recoding" : false,
    "longitude" : "-74.08496"
  },
  "state" : "NY",
  "time" : "17:00:10",
  "longitude" : "-74.08496"
}
, {
  "zip" : "11225",
  "date" : "2017-07-14T00:00:00",
  "entity_name" : "TRANSP UNLIMITED C/S",
  "city" : "BROOKLYN",
  "type_of_base" : "LIVERY BASE",
  "latitude" : "40.657261",
  "telephone_number" : "7183631000",
  "shl_endorsed" : "No",
  "building" : "1226",
  "license_number" : "B00037",
  "street" : "NOSTRAND AVENUE",
  "location" : {
    "latitude" : "40.657261",
    "human_address" : "{\"address\":\"\",\"city\":\"\",\"state\":\"\",\"zip\":\"\"}",
    "needs_recoding" : false,
    "longitude" : "-73.95051"
  },
  "state" : "NY",
  "time" : "17:00:10",
  "longitude" : "-73.95051"
}
, {
  "zip" : "11415",
  "date" : "2017-07-14T00:00:00",
  "entity_name" : "T-D MAINTENANCE CORP",
  "city" : "KEW GARDENS",
  "type_of_base" : "LIVERY BASE",
  "latitude" : "40.70681",
  "telephone_number" : "7184561111",
  "shl_endorsed" : "No",
  "building" : "127-01",
  "license_number" : "B00008",
  "street" : "METROPOLITAN AVENUE",
  "location" : {
    "latitude" : "40.70681",
    "human_address" : "{\"address\":\"\",\"city\":\"\",\"state\":\"\",\"zip\":\"\"}",
    "needs_recoding" : false,
    "longitude" : "-73.87768"
  },
  "state" : "NY",
  "time" : "17:00:10",
  "longitude" : "-73.87768"
}
, {
  "zip" : "10456",
  "date" : "2017-07-14T00:00:00",
  "entity_name" : "UPTOWN TRANSIT CORP",
  "city" : "BRONX",
  "type_of_base" : "LIVERY BASE",
  "latitude" : "40.825287",
  "telephone_number" : "7189938070",
  "shl_endorsed" : "No",
  "building" : "961",
  "license_number" : "B00850",
  "street" : "WASHINGTON AVENUE",
  "location" : {
    "latitude" : "40.825287",
    "human_address" : "{\"address\":\"\",\"city\":\"\",\"state\":\"\",\"zip\":\"\"}",
    "needs_recoding" : false,
    "longitude" : "-73.91052"
  },
  "state" : "NY",
  "time" : "17:00:10",
  "longitude" : "-73.91052"
}
, {
  "zip" : "11370-2002",
  "date" : "2017-07-14T00:00:00",
  "entity_name" : "GOLDEN-TOWN CAR & LIMOUSINE SERVICE INC.",
  "city" : "EAST ELMHURST",
  "type_of_base" : "LIVERY BASE",
  "latitude" : "40.755791",
  "telephone_number" : "7184297071",
  "shl_endorsed" : "Yes",
  "building" : "32-60",
  "license_number" : "B00955",
  "street" : "81 STREET",
  "location" : {
    "latitude" : "40.755791",
    "human_address" : "{\"address\":\"\",\"city\":\"\",\"state\":\"\",\"zip\":\"\"}",
    "needs_recoding" : false,
    "longitude" : "-73.88638"
  },
  "state" : "NT",
  "time" : "17:00:10",
  "longitude" : "-73.88638"
}
, {
  "zip" : "11218",
  "date" : "2017-07-14T00:00:00",
  "entity_name" : "U.S.A. LIMO. INC.",
  "city" : "BROOKLYN",
  "type_of_base" : "LUXURY/LIMOUSINE",
  "latitude" : "40.638477",
  "telephone_number" : "7184381100",
  "shl_endorsed" : "No",
  "building" : "1440",
  "license_number" : "B01877",
  "street" : "39 STREET",
  "location" : {
    "latitude" : "40.638477",
    "human_address" : "{\"address\":\"\",\"city\":\"\",\"state\":\"\",\"zip\":\"\"}",
    "needs_recoding" : false,
    "longitude" : "-73.983333"
  },
  "state" : "NY",
  "time" : "17:00:10",
  "longitude" : "-73.983333"
}
, {
  "zip" : "10001",
  "date" : "2017-07-14T00:00:00",
  "entity_name" : "VIERZEHN-NY, LLC",
  "city" : "NEW YORK",
  "type_of_base" : "BLACK CAR BASE",
  "latitude" : "40.75273",
  "telephone_number" : "6466657584",
  "shl_endorsed" : "No",
  "building" : "636",
  "license_number" : "B02876",
  "street" : "WEST   28 STREET",
  "location" : {
    "latitude" : "40.75273",
    "human_address" : "{\"address\":\"\",\"city\":\"\",\"state\":\"\",\"zip\":\"\"}",
    "needs_recoding" : false,
    "longitude" : "-74.00641"
  },
  "state" : "NY",
  "time" : "17:00:10",
  "longitude" : "-74.00641"
}
, {
  "zip" : "11211",
  "date" : "2017-07-14T00:00:00",
  "entity_name" : "THE NEW BROOKLYN C/S INC",
  "city" : "BROOKLYN",
  "type_of_base" : "LIVERY BASE",
  "latitude" : "40.709336",
  "telephone_number" : "7183882828",
  "shl_endorsed" : "Yes",
  "building" : "390",
  "license_number" : "B01259",
  "street" : "BROADWAY  1FL",
  "location" : {
    "latitude" : "40.709336",
    "human_address" : "{\"address\":\"\",\"city\":\"\",\"state\":\"\",\"zip\":\"\"}",
    "needs_recoding" : false,
    "longitude" : "-73.95656"
  },
  "state" : "NY",
  "time" : "17:00:10",
  "longitude" : "-73.95656"
}
, {
  "zip" : "11226",
  "date" : "2017-07-14T00:00:00",
  "entity_name" : "M EXPRESS INC",
  "city" : "BROOKLYN",
  "type_of_base" : "LIVERY BASE",
  "latitude" : "40.642138",
  "telephone_number" : "7189414081",
  "shl_endorsed" : "No",
  "building" : "1623",
  "license_number" : "B02562",
  "street" : "CORTELYOU ROAD",
  "location" : {
    "latitude" : "40.642138",
    "human_address" : "{\"address\":\"\",\"city\":\"\",\"state\":\"\",\"zip\":\"\"}",
    "needs_recoding" : false,
    "longitude" : "-73.96285"
  },
  "state" : "NY",
  "time" : "17:00:10",
  "longitude" : "-73.96285"
}
, {
  "zip" : "11203",
  "date" : "2017-07-14T00:00:00",
  "entity_name" : "ROYAL ROSE TRANSPORTATION LLC",
  "city" : "BROOKLYN",
  "type_of_base" : "COMMUTER VAN AUTHORITY BASE",
  "latitude" : "40.652592",
  "telephone_number" : "7185939290",
  "shl_endorsed" : "No",
  "building" : "839",
  "license_number" : "B80169",
  "street" : "TROY AVENUE",
  "location" : {
    "latitude" : "40.652592",
    "human_address" : "{\"address\":\"\",\"city\":\"\",\"state\":\"\",\"zip\":\"\"}",
    "needs_recoding" : false,
    "longitude" : "-73.935959"
  },
  "state" : "NY",
  "time" : "17:00:10",
  "longitude" : "-73.935959"
}
, {
  "zip" : "11236",
  "date" : "2017-07-14T00:00:00",
  "entity_name" : "MORNING STAR AMBULETTE SERVICES INC",
  "city" : "BROOKLYN",
  "type_of_base" : "PARATRANSIT BASE",
  "latitude" : "40.635933",
  "telephone_number" : "7183777782",
  "shl_endorsed" : "No",
  "building" : "8422",
  "license_number" : "B90634",
  "street" : "AVENUE J",
  "location" : {
    "latitude" : "40.635933",
    "human_address" : "{\"address\":\"\",\"city\":\"\",\"state\":\"\",\"zip\":\"\"}",
    "needs_recoding" : false,
    "longitude" : "-73.90771"
  },
  "state" : "NY",
  "time" : "17:00:10",
  "longitude" : "-73.90771"
}
, {
  "zip" : "10002",
  "date" : "2017-07-14T00:00:00",
  "entity_name" : "ND LINE INC.",
  "city" : "NEW YORK",
  "type_of_base" : "BLACK CAR BASE",
  "latitude" : "40.718549",
  "telephone_number" : "2124200101",
  "shl_endorsed" : "No",
  "building" : "84",
  "license_number" : "B02588",
  "street" : "CLINTON STREET",
  "location" : {
    "latitude" : "40.718549",
    "human_address" : "{\"address\":\"\",\"city\":\"\",\"state\":\"\",\"zip\":\"\"}",
    "needs_recoding" : false,
    "longitude" : "-73.98515"
  },
  "state" : "NY",
  "time" : "17:00:10",
  "longitude" : "-73.98515"
}
, {
  "zip" : "11209",
  "date" : "2017-07-14T00:00:00",
  "entity_name" : "DYKER CARS INC.",
  "city" : "BROOKLYN",
  "type_of_base" : "LIVERY BASE",
  "latitude" : "40.617534",
  "telephone_number" : "7186222222",
  "shl_endorsed" : "No",
  "building" : "9413",
  "license_number" : "B01353",
  "street" : "3 AVENUE",
  "location" : {
    "latitude" : "40.617534",
    "human_address" : "{\"address\":\"\",\"city\":\"\",\"state\":\"\",\"zip\":\"\"}",
    "needs_recoding" : false,
    "longitude" : "-74.03347"
  },
  "state" : "NY",
  "time" : "17:00:10",
  "longitude" : "-74.03347"
}
, {
  "zip" : "11420",
  "date" : "2017-07-14T00:00:00",
  "entity_name" : "128 BLUE BIRD TRANSPORT INC.",
  "city" : "OZONE PARK",
  "type_of_base" : "LIVERY BASE",
  "latitude" : "40.683921",
  "telephone_number" : "7185297748",
  "shl_endorsed" : "No",
  "building" : "111-05",
  "license_number" : "B00054",
  "street" : "128 STREET",
  "location" : {
    "latitude" : "40.683921",
    "human_address" : "{\"address\":\"\",\"city\":\"\",\"state\":\"\",\"zip\":\"\"}",
    "needs_recoding" : false,
    "longitude" : "-73.813971"
  },
  "state" : "NY",
  "time" : "17:00:10",
  "longitude" : "-73.813971"
}
, {
  "zip" : "11096",
  "date" : "2017-07-14T00:00:00",
  "entity_name" : "US LIMO SYSTEM INC",
  "city" : "INWOOD",
  "type_of_base" : "LUXURY/LIMOUSINE",
  "latitude" : "40.619641",
  "telephone_number" : "5163275466",
  "shl_endorsed" : "No",
  "building" : "167",
  "license_number" : "B02191",
  "street" : "LAWRENCE AVENUE",
  "location" : {
    "latitude" : "40.619641",
    "human_address" : "{\"address\":\"\",\"city\":\"\",\"state\":\"\",\"zip\":\"\"}",
    "needs_recoding" : false,
    "longitude" : "-73.737598"
  },
  "state" : "NY",
  "time" : "17:00:10",
  "longitude" : "-73.737598"
}
, {
  "zip" : "10461",
  "date" : "2017-07-14T00:00:00",
  "entity_name" : "49 WESTCHESTER SQUARE PRESTIGE CAR SERVICE, CORP.",
  "city" : "BRONX",
  "type_of_base" : "LIVERY BASE",
  "latitude" : "40.841873",
  "telephone_number" : "7185362800",
  "shl_endorsed" : "No",
  "building" : "49",
  "license_number" : "B02719",
  "street" : "WESTCHESTER SQUARE",
  "location" : {
    "latitude" : "40.841873",
    "human_address" : "{\"address\":\"\",\"city\":\"\",\"state\":\"\",\"zip\":\"\"}",
    "needs_recoding" : false,
    "longitude" : "-73.843614"
  },
  "state" : "NY",
  "time" : "17:00:10",
  "longitude" : "-73.843614"
}
, {
  "zip" : "11372",
  "date" : "2017-07-14T00:00:00",
  "entity_name" : "MEXICANA CAR SERVICE INC.",
  "city" : "JACKSON HEIGHTS",
  "type_of_base" : "LIVERY BASE",
  "latitude" : "40.752792",
  "telephone_number" : "7184468700",
  "shl_endorsed" : "No",
  "building" : "70-18",
  "license_number" : "B00889",
  "street" : "35 AVENUE",
  "location" : {
    "latitude" : "40.752792",
    "human_address" : "{\"address\":\"\",\"city\":\"\",\"state\":\"\",\"zip\":\"\"}",
    "needs_recoding" : false,
    "longitude" : "-73.88013"
  },
  "state" : "NY",
  "time" : "17:00:10",
  "longitude" : "-73.88013"
}
, {
  "zip" : "10034",
  "date" : "2017-07-14T00:00:00",
  "entity_name" : "SEAMAN EXPRESS CORP.",
  "city" : "NEW YORK",
  "type_of_base" : "BLACK CAR BASE",
  "latitude" : "40.869265",
  "telephone_number" : "6469644686",
  "shl_endorsed" : "No",
  "building" : "4020",
  "license_number" : "B02892",
  "street" : "10 AVENUE",
  "location" : {
    "latitude" : "40.869265",
    "human_address" : "{\"address\":\"\",\"city\":\"\",\"state\":\"\",\"zip\":\"\"}",
    "needs_recoding" : false,
    "longitude" : "-73.91584"
  },
  "state" : "NY",
  "time" : "17:00:10",
  "longitude" : "-73.91584"
}
, {
  "zip" : "10474",
  "date" : "2017-07-14T00:00:00",
  "entity_name" : "U & ME TRANSPORT INC.",
  "city" : "BRONX",
  "type_of_base" : "PARATRANSIT BASE",
  "latitude" : "40.812662",
  "telephone_number" : "6462287101",
  "shl_endorsed" : "No",
  "building" : "623",
  "license_number" : "B90680",
  "street" : "BARRETTO STREET",
  "location" : {
    "latitude" : "40.812662",
    "human_address" : "{\"address\":\"\",\"city\":\"\",\"state\":\"\",\"zip\":\"\"}",
    "needs_recoding" : false,
    "longitude" : "-73.889152"
  },
  "state" : "NY",
  "time" : "17:00:10",
  "longitude" : "-73.889152"
}
, {
  "zip" : "11218",
  "date" : "2017-07-14T00:00:00",
  "entity_name" : "BELL RADIO INC",
  "city" : "BROOKLYN",
  "type_of_base" : "BLACK CAR BASE",
  "latitude" : "40.638477",
  "telephone_number" : "7184381100",
  "shl_endorsed" : "No",
  "building" : "1440",
  "license_number" : "B00381",
  "street" : "39 STREET",
  "location" : {
    "latitude" : "40.638477",
    "human_address" : "{\"address\":\"\",\"city\":\"\",\"state\":\"\",\"zip\":\"\"}",
    "needs_recoding" : false,
    "longitude" : "-73.983333"
  },
  "state" : "NY",
  "time" : "17:00:10",
  "longitude" : "-73.983333"
}
, {
  "zip" : "11238",
  "date" : "2017-07-14T00:00:00",
  "entity_name" : "ALL NATIONS LUXURY LIMO CORP.",
  "city" : "BROOKLYN",
  "type_of_base" : "BLACK CAR BASE",
  "latitude" : "40.676684",
  "telephone_number" : "7182301222",
  "shl_endorsed" : "No",
  "building" : "687A",
  "license_number" : "B02376",
  "street" : "WASHINGTON AVENUE",
  "location" : {
    "latitude" : "40.676684",
    "human_address" : "{\"address\":\"\",\"city\":\"\",\"state\":\"\",\"zip\":\"\"}",
    "needs_recoding" : false,
    "longitude" : "-73.96339"
  },
  "state" : "NY",
  "time" : "17:00:10",
  "longitude" : "-73.96339"
}
, {
  "zip" : "11101",
  "date" : "2017-07-14T00:00:00",
  "entity_name" : "CENTER OF THE WORLD CAR SERVICE CORP",
  "city" : "LIC",
  "type_of_base" : "LIVERY BASE",
  "latitude" : "40.746503",
  "telephone_number" : "9178434254",
  "shl_endorsed" : "Yes",
  "building" : "35-11",
  "license_number" : "B02804",
  "street" : "43 AVENUE",
  "location" : {
    "latitude" : "40.746503",
    "human_address" : "{\"address\":\"\",\"city\":\"\",\"state\":\"\",\"zip\":\"\"}",
    "needs_recoding" : false,
    "longitude" : "-73.92894"
  },
  "state" : "NY",
  "time" : "17:00:10",
  "longitude" : "-73.92894"
}
, {
  "zip" : "11212",
  "date" : "2017-07-14T00:00:00",
  "entity_name" : "AFRO CAR SERVICE CORP",
  "city" : "BROOKLYN",
  "type_of_base" : "LIVERY BASE",
  "latitude" : "40.65609",
  "telephone_number" : "7183424200",
  "shl_endorsed" : "Yes",
  "building" : "73",
  "license_number" : "B01963",
  "street" : "HEGEMAN AVENUE",
  "location" : {
    "latitude" : "40.65609",
    "human_address" : "{\"address\":\"\",\"city\":\"\",\"state\":\"\",\"zip\":\"\"}",
    "needs_recoding" : false,
    "longitude" : "-73.90948"
  },
  "state" : "NY",
  "time" : "17:00:10",
  "longitude" : "-73.90948"
}
, {
  "zip" : "11694",
  "date" : "2017-07-14T00:00:00",
  "entity_name" : "MARTIN'S BELLE HARBOR CAR SERVICE",
  "city" : "ROCKAWAY PARK",
  "type_of_base" : "LIVERY BASE",
  "latitude" : "40.57911",
  "telephone_number" : "7186341200",
  "shl_endorsed" : "No",
  "building" : "173",
  "license_number" : "B00345",
  "street" : "BEACH  116 STREET",
  "location" : {
    "latitude" : "40.57911",
    "human_address" : "{\"address\":\"\",\"city\":\"\",\"state\":\"\",\"zip\":\"\"}",
    "needs_recoding" : false,
    "longitude" : "-73.837141"
  },
  "state" : "NY",
  "time" : "17:00:10",
  "longitude" : "-73.837141"
}
, {
  "zip" : "11229",
  "date" : "2017-07-14T00:00:00",
  "entity_name" : "BRUNWISH ENTERPRISES,LTD.",
  "city" : "BROOKLYN",
  "type_of_base" : "LIVERY BASE",
  "latitude" : "40.611528",
  "telephone_number" : "7183826868",
  "shl_endorsed" : "No",
  "building" : "2982",
  "license_number" : "B01509",
  "street" : "NOSTRAND AVENUE",
  "location" : {
    "latitude" : "40.611528",
    "human_address" : "{\"address\":\"\",\"city\":\"\",\"state\":\"\",\"zip\":\"\"}",
    "needs_recoding" : false,
    "longitude" : "-73.944318"
  },
  "state" : "NY",
  "time" : "17:00:10",
  "longitude" : "-73.944318"
}
, {
  "zip" : "11223",
  "date" : "2017-07-14T00:00:00",
  "entity_name" : "ADVANTAGE LIMO OF NY INC.",
  "city" : "BROOKLYN",
  "type_of_base" : "BLACK CAR BASE",
  "latitude" : "40.603784",
  "telephone_number" : "7187577777",
  "shl_endorsed" : "No",
  "building" : "2002",
  "license_number" : "B02979",
  "street" : "MCDONALD AVENUE",
  "location" : {
    "latitude" : "40.603784",
    "human_address" : "{\"address\":\"\",\"city\":\"\",\"state\":\"\",\"zip\":\"\"}",
    "needs_recoding" : false,
    "longitude" : "-73.972558"
  },
  "state" : "NY",
  "time" : "17:00:10",
  "longitude" : "-73.972558"
}
, {
  "zip" : "11374",
  "date" : "2017-07-14T00:00:00",
  "entity_name" : "AFFORDABLE SENIOR CARE INC",
  "city" : "REGO PARK",
  "type_of_base" : "PARATRANSIT BASE",
  "latitude" : "40.72952",
  "telephone_number" : "7182617399",
  "shl_endorsed" : "No",
  "building" : "97-11",
  "license_number" : "B90651",
  "street" : "64 ROAD",
  "location" : {
    "latitude" : "40.72952",
    "human_address" : "{\"address\":\"\",\"city\":\"\",\"state\":\"\",\"zip\":\"\"}",
    "needs_recoding" : false,
    "longitude" : "-73.859078"
  },
  "state" : "NY",
  "time" : "17:00:10",
  "longitude" : "-73.859078"
}
, {
  "zip" : "11223",
  "date" : "2017-07-14T00:00:00",
  "entity_name" : "ADVANTAGE LIMO OF NY INC",
  "city" : "BROOKLYN",
  "type_of_base" : "LUXURY/LIMOUSINE",
  "latitude" : "40.603784",
  "telephone_number" : "7187577777",
  "shl_endorsed" : "No",
  "building" : "2002",
  "license_number" : "B02980",
  "street" : "MCDONALD AVENUE",
  "location" : {
    "latitude" : "40.603784",
    "human_address" : "{\"address\":\"\",\"city\":\"\",\"state\":\"\",\"zip\":\"\"}",
    "needs_recoding" : false,
    "longitude" : "-73.972558"
  },
  "state" : "NY",
  "time" : "17:00:10",
  "longitude" : "-73.972558"
}
, {
  "zip" : "11413",
  "date" : "2017-07-14T00:00:00",
  "entity_name" : "HAL TRANSPORTATION SERVICE INC",
  "city" : "LAURELTON",
  "type_of_base" : "COMMUTER VAN AUTHORITY BASE",
  "latitude" : "40.679806",
  "telephone_number" : "7186665062",
  "shl_endorsed" : "No",
  "building" : "130-34",
  "license_number" : "B80173",
  "street" : "232 STREET",
  "location" : {
    "latitude" : "40.679806",
    "human_address" : "{\"address\":\"\",\"city\":\"\",\"state\":\"\",\"zip\":\"\"}",
    "needs_recoding" : false,
    "longitude" : "-73.735622"
  },
  "state" : "NY",
  "time" : "17:00:10",
  "longitude" : "-73.735622"
}
, {
  "zip" : "11102",
  "date" : "2017-07-14T00:00:00",
  "entity_name" : "APPLE TRANSPORTATION OF N.Y. INC.",
  "city" : "LIC",
  "type_of_base" : "PARATRANSIT BASE",
  "latitude" : "40.774993",
  "telephone_number" : "7182677200",
  "shl_endorsed" : "No",
  "building" : "3-01",
  "license_number" : "B90540",
  "street" : "27 AVENUE",
  "location" : {
    "latitude" : "40.774993",
    "human_address" : "{\"address\":\"\",\"city\":\"\",\"state\":\"\",\"zip\":\"\"}",
    "needs_recoding" : false,
    "longitude" : "-73.934217"
  },
  "state" : "NY",
  "time" : "17:00:10",
  "longitude" : "-73.934217"
}
, {
  "zip" : "11363",
  "date" : "2017-07-14T00:00:00",
  "entity_name" : "OLLIE'S TRANSPORTATION SERVICE",
  "city" : "LITTLE NECK",
  "type_of_base" : "LIVERY BASE",
  "latitude" : "40.773679",
  "telephone_number" : "7187406600",
  "shl_endorsed" : "No",
  "building" : "39",
  "license_number" : "B01679",
  "street" : "ROAD LITTLE NECK PARKWAY",
  "location" : {
    "latitude" : "40.773679",
    "human_address" : "{\"address\":\"\",\"city\":\"\",\"state\":\"\",\"zip\":\"\"}",
    "needs_recoding" : false,
    "longitude" : "-73.742098"
  },
  "state" : "NY",
  "time" : "17:00:10",
  "longitude" : "-73.742098"
}
, {
  "zip" : "11218",
  "date" : "2017-07-14T00:00:00",
  "entity_name" : "RACHEL'S CAR SERVICE,INC.",
  "city" : "BROOKLYN",
  "type_of_base" : "LIVERY BASE",
  "latitude" : "40.637716",
  "telephone_number" : "7189722223",
  "shl_endorsed" : "No",
  "building" : "548",
  "license_number" : "B01263",
  "street" : "EAST    2 STREET",
  "location" : {
    "latitude" : "40.637716",
    "human_address" : "{\"address\":\"\",\"city\":\"\",\"state\":\"\",\"zip\":\"\"}",
    "needs_recoding" : false,
    "longitude" : "-73.977401"
  },
  "state" : "NY",
  "time" : "17:00:10",
  "longitude" : "-73.977401"
}
, {
  "zip" : "11423",
  "date" : "2017-07-14T00:00:00",
  "entity_name" : "P J CAR SVCE",
  "city" : "HOLLIS",
  "type_of_base" : "LIVERY BASE",
  "latitude" : "40.715516",
  "telephone_number" : "7184797676",
  "shl_endorsed" : "No",
  "building" : "205-25",
  "license_number" : "B00984",
  "street" : "HILLSIDE AVENUE",
  "location" : {
    "latitude" : "40.715516",
    "human_address" : "{\"address\":\"\",\"city\":\"\",\"state\":\"\",\"zip\":\"\"}",
    "needs_recoding" : false,
    "longitude" : "-73.772583"
  },
  "state" : "NY",
  "time" : "17:00:10",
  "longitude" : "-73.772583"
}
, {
  "zip" : "10018",
  "date" : "2017-07-14T00:00:00",
  "entity_name" : "HINO-MARU ENTERPRISES INC.",
  "city" : "NEW YORK",
  "type_of_base" : "LUXURY/LIMOUSINE",
  "latitude" : "40.751092",
  "telephone_number" : "2127520133",
  "shl_endorsed" : "No",
  "building" : "8",
  "license_number" : "B00552",
  "street" : "WEST 38 STREET  STE. 1206",
  "location" : {
    "latitude" : "40.751092",
    "human_address" : "{\"address\":\"\",\"city\":\"\",\"state\":\"\",\"zip\":\"\"}",
    "needs_recoding" : false,
    "longitude" : "-73.983587"
  },
  "state" : "NY",
  "time" : "17:00:10",
  "longitude" : "-73.983587"
}
, {
  "zip" : "11385",
  "date" : "2017-07-14T00:00:00",
  "entity_name" : "FENIX MOBILE DISPATCHERS LTD",
  "city" : "RIDGEWOOD",
  "type_of_base" : "LIVERY BASE",
  "latitude" : "40.704224",
  "telephone_number" : "7188212900",
  "shl_endorsed" : "No",
  "building" : "586",
  "license_number" : "B02594",
  "street" : "SENECA AVE  1",
  "location" : {
    "latitude" : "40.704224",
    "human_address" : "{\"address\":\"\",\"city\":\"\",\"state\":\"\",\"zip\":\"\"}",
    "needs_recoding" : false,
    "longitude" : "-73.9103"
  },
  "state" : "NY",
  "time" : "17:00:10",
  "longitude" : "-73.9103"
}
, {
  "zip" : "11422",
  "date" : "2017-07-14T00:00:00",
  "entity_name" : "ROSEDALE BASE CAR SERVICE CORP.",
  "city" : "ROSEDALE",
  "type_of_base" : "LIVERY BASE",
  "latitude" : "40.666272",
  "telephone_number" : "7185283434",
  "shl_endorsed" : "No",
  "building" : "139-15",
  "license_number" : "B01731",
  "street" : "FRANCIS LEWIS BOULEVARD",
  "location" : {
    "latitude" : "40.666272",
    "human_address" : "{\"address\":\"\",\"city\":\"\",\"state\":\"\",\"zip\":\"\"}",
    "needs_recoding" : false,
    "longitude" : "-73.735806"
  },
  "state" : "NY",
  "time" : "17:00:10",
  "longitude" : "-73.735806"
}
, {
  "zip" : "11369",
  "date" : "2017-07-14T00:00:00",
  "entity_name" : "NYMEX UNO EXECUTIVE SEDAN'S INC",
  "city" : "EAST ELMHURST",
  "type_of_base" : "LIVERY BASE",
  "latitude" : "40.760249",
  "telephone_number" : "7187861000",
  "shl_endorsed" : "No",
  "building" : "90-03",
  "license_number" : "B01995",
  "street" : "31 AVENUE",
  "location" : {
    "latitude" : "40.760249",
    "human_address" : "{\"address\":\"\",\"city\":\"\",\"state\":\"\",\"zip\":\"\"}",
    "needs_recoding" : false,
    "longitude" : "-73.878437"
  },
  "state" : "NY",
  "time" : "17:00:10",
  "longitude" : "-73.878437"
}
, {
  "zip" : "11232",
  "date" : "2017-07-14T00:00:00",
  "entity_name" : "CONCORD LIMOUSINE 1, LLC",
  "city" : "BROOKLYN",
  "type_of_base" : "BLACK CAR BASE",
  "latitude" : "40.663353",
  "telephone_number" : "7189656100",
  "shl_endorsed" : "No",
  "building" : "712",
  "license_number" : "B00628",
  "street" : "3 AVENUE",
  "location" : {
    "latitude" : "40.663353",
    "human_address" : "{\"address\":\"\",\"city\":\"\",\"state\":\"\",\"zip\":\"\"}",
    "needs_recoding" : false,
    "longitude" : "-73.99894"
  },
  "state" : "NY",
  "time" : "17:00:10",
  "longitude" : "-73.99894"
}
, {
  "zip" : "11101",
  "date" : "2017-07-14T00:00:00",
  "entity_name" : "VITAL PLATINUM SERVICES, INC.",
  "city" : "LIC",
  "type_of_base" : "LUXURY/LIMOUSINE",
  "latitude" : "40.746697",
  "telephone_number" : "7184722500",
  "shl_endorsed" : "No",
  "building" : "41-24",
  "license_number" : "B02533",
  "street" : "38 STREET",
  "location" : {
    "latitude" : "40.746697",
    "human_address" : "{\"address\":\"\",\"city\":\"\",\"state\":\"\",\"zip\":\"\"}",
    "needs_recoding" : false,
    "longitude" : "-73.926818"
  },
  "state" : "NY",
  "time" : "17:00:10",
  "longitude" : "-73.926818"
}
, {
  "zip" : "11203",
  "date" : "2017-07-14T00:00:00",
  "entity_name" : "LEFRA TRANSP INC",
  "city" : "BROOKLYN",
  "type_of_base" : "PARATRANSIT BASE",
  "latitude" : "40.653435",
  "telephone_number" : "7189403990",
  "shl_endorsed" : "No",
  "building" : "700",
  "license_number" : "B90413",
  "street" : "LINDEN BOULEVARD",
  "location" : {
    "latitude" : "40.653435",
    "human_address" : "{\"address\":\"\",\"city\":\"\",\"state\":\"\",\"zip\":\"\"}",
    "needs_recoding" : false,
    "longitude" : "-73.932373"
  },
  "state" : "NY",
  "time" : "17:00:10",
  "longitude" : "-73.932373"
}
, {
  "zip" : "11216",
  "date" : "2017-07-14T00:00:00",
  "entity_name" : "MINEOLA TRANSPORTATION INC.",
  "city" : "BROOKLYN",
  "type_of_base" : "BLACK CAR BASE",
  "latitude" : "40.678709",
  "telephone_number" : "9178595195",
  "shl_endorsed" : "No",
  "building" : "1267",
  "license_number" : "B02303",
  "street" : "ATLANTIC AVENUE",
  "location" : {
    "latitude" : "40.678709",
    "human_address" : "{\"address\":\"\",\"city\":\"\",\"state\":\"\",\"zip\":\"\"}",
    "needs_recoding" : false,
    "longitude" : "-73.948652"
  },
  "state" : "NY",
  "time" : "17:00:10",
  "longitude" : "-73.948652"
}
, {
  "zip" : "11223",
  "date" : "2017-07-14T00:00:00",
  "entity_name" : "SHOWTIME 2 LTD.",
  "city" : "BROOKLYN",
  "type_of_base" : "BLACK CAR BASE",
  "latitude" : "40.597832",
  "telephone_number" : "7186152222",
  "shl_endorsed" : "No",
  "building" : "2421",
  "license_number" : "B02858",
  "street" : "CONEY ISLAND AVENUE",
  "location" : {
    "latitude" : "40.597832",
    "human_address" : "{\"address\":\"\",\"city\":\"\",\"state\":\"\",\"zip\":\"\"}",
    "needs_recoding" : false,
    "longitude" : "-73.96094"
  },
  "state" : "NY",
  "time" : "17:00:10",
  "longitude" : "-73.96094"
}
, {
  "zip" : "11223",
  "date" : "2017-07-14T00:00:00",
  "entity_name" : "EILAT TRANSPORTATION CORP",
  "city" : "BROOKLYN",
  "type_of_base" : "LIVERY BASE",
  "latitude" : "40.604462",
  "telephone_number" : "7185337777",
  "shl_endorsed" : "Yes",
  "building" : "461",
  "license_number" : "B01243",
  "street" : "KINGS HIGHWAY",
  "location" : {
    "latitude" : "40.604462",
    "human_address" : "{\"address\":\"\",\"city\":\"\",\"state\":\"\",\"zip\":\"\"}",
    "needs_recoding" : false,
    "longitude" : "-73.97275"
  },
  "state" : "NY",
  "time" : "17:00:10",
  "longitude" : "-73.97275"
}
, {
  "zip" : "11217",
  "date" : "2017-07-14T00:00:00",
  "entity_name" : "ARECIBO C/S INC",
  "city" : "BROOKLYN",
  "type_of_base" : "LIVERY BASE",
  "latitude" : "40.677669",
  "telephone_number" : "7187836465",
  "shl_endorsed" : "No",
  "building" : "171",
  "license_number" : "B01346",
  "street" : "5 AVENUE",
  "location" : {
    "latitude" : "40.677669",
    "human_address" : "{\"address\":\"\",\"city\":\"\",\"state\":\"\",\"zip\":\"\"}",
    "needs_recoding" : false,
    "longitude" : "-73.97994"
  },
  "state" : "NY",
  "time" : "17:00:10",
  "longitude" : "-73.97994"
}
, {
  "zip" : "10075",
  "date" : "2017-07-14T00:00:00",
  "entity_name" : "SURREY CADILLAC LIMO SVC INC",
  "city" : "NEW YORK",
  "type_of_base" : "LUXURY/LIMOUSINE",
  "latitude" : "40.770569",
  "telephone_number" : "2123551727",
  "shl_endorsed" : "No",
  "building" : "439",
  "license_number" : "B00556",
  "street" : "EAST 77TH STREET",
  "location" : {
    "latitude" : "40.770569",
    "human_address" : "{\"address\":\"\",\"city\":\"\",\"state\":\"\",\"zip\":\"\"}",
    "needs_recoding" : false,
    "longitude" : "-73.95198"
  },
  "state" : "NY",
  "time" : "17:00:10",
  "longitude" : "-73.95198"
}
, {
  "zip" : "11365",
  "date" : "2017-07-14T00:00:00",
  "entity_name" : "BRITISH LUXURY TRANSPORTATION, INC.",
  "city" : "FRESH MEADOWS",
  "type_of_base" : "BLACK CAR BASE",
  "latitude" : "40.739077",
  "telephone_number" : "9176848338",
  "shl_endorsed" : "No",
  "building" : "61-43",
  "license_number" : "B02911",
  "street" : "186 STREET  302",
  "location" : {
    "latitude" : "40.739077",
    "human_address" : "{\"address\":\"\",\"city\":\"\",\"state\":\"\",\"zip\":\"\"}",
    "needs_recoding" : false,
    "longitude" : "-73.787622"
  },
  "state" : "NY",
  "time" : "17:00:10",
  "longitude" : "-73.787622"
}
, {
  "zip" : "11218",
  "date" : "2017-07-14T00:00:00",
  "entity_name" : "TEL-A-CAR OF NEW YORK, LLC",
  "city" : "BROOKLYN",
  "type_of_base" : "BLACK CAR BASE",
  "latitude" : "40.638477",
  "telephone_number" : "7189569111",
  "shl_endorsed" : "No",
  "building" : "1440",
  "license_number" : "B01197",
  "street" : "39 STREET",
  "location" : {
    "latitude" : "40.638477",
    "human_address" : "{\"address\":\"\",\"city\":\"\",\"state\":\"\",\"zip\":\"\"}",
    "needs_recoding" : false,
    "longitude" : "-73.98333"
  },
  "state" : "NY",
  "time" : "17:00:10",
  "longitude" : "-73.98333"
}
, {
  "zip" : "11101",
  "date" : "2017-07-14T00:00:00",
  "entity_name" : "HENRY LIMOUSINE LTD",
  "city" : "LIC",
  "type_of_base" : "LUXURY/LIMOUSINE",
  "latitude" : "40.751982",
  "telephone_number" : "7184332333",
  "shl_endorsed" : "No",
  "building" : "11-01",
  "license_number" : "B01801",
  "street" : "43 AVENUE",
  "location" : {
    "latitude" : "40.751982",
    "human_address" : "{\"address\":\"\",\"city\":\"\",\"state\":\"\",\"zip\":\"\"}",
    "needs_recoding" : false,
    "longitude" : "-73.947523"
  },
  "state" : "NY",
  "time" : "17:00:10",
  "longitude" : "-73.947523"
}
, {
  "zip" : "11214",
  "date" : "2017-07-14T00:00:00",
  "entity_name" : "AMAZING CAR AND LIMO SERVICE INC",
  "city" : "BROOKLYN",
  "type_of_base" : "LIVERY BASE",
  "latitude" : "40.605623",
  "telephone_number" : "7189425959",
  "shl_endorsed" : "Yes",
  "building" : "1659",
  "license_number" : "B02920",
  "street" : "BATH AVENUE",
  "location" : {
    "latitude" : "40.605623",
    "human_address" : "{\"address\":\"\",\"city\":\"\",\"state\":\"\",\"zip\":\"\"}",
    "needs_recoding" : false,
    "longitude" : "-74.008705"
  },
  "state" : "NY",
  "time" : "17:00:10",
  "longitude" : "-74.008705"
}
, {
  "zip" : "10583",
  "date" : "2017-07-14T00:00:00",
  "entity_name" : "STATEWIDE AMBULETTE SERVICE INC",
  "city" : "SCARDALE",
  "type_of_base" : "PARATRANSIT BASE",
  "latitude" : "40.978734",
  "telephone_number" : "9146688750",
  "shl_endorsed" : "No",
  "building" : "121",
  "license_number" : "B90562",
  "street" : "MONTGOMERY AVENUE",
  "location" : {
    "latitude" : "40.978734",
    "human_address" : "{\"address\":\"\",\"city\":\"\",\"state\":\"\",\"zip\":\"\"}",
    "needs_recoding" : false,
    "longitude" : "-73.805656"
  },
  "state" : "NY",
  "time" : "17:00:10",
  "longitude" : "-73.805656"
}
, {
  "zip" : "10001",
  "date" : "2017-07-14T00:00:00",
  "entity_name" : "VIER-NY,LLC",
  "city" : "NEW YORK",
  "type_of_base" : "BLACK CAR BASE",
  "latitude" : "40.75273",
  "telephone_number" : "6466657536",
  "shl_endorsed" : "No",
  "building" : "636",
  "license_number" : "B02865",
  "street" : "WEST   28 STREET",
  "location" : {
    "latitude" : "40.75273",
    "human_address" : "{\"address\":\"\",\"city\":\"\",\"state\":\"\",\"zip\":\"\"}",
    "needs_recoding" : false,
    "longitude" : "-74.006408"
  },
  "state" : "NY",
  "time" : "17:00:10",
  "longitude" : "-74.006408"
}
, {
  "zip" : "10001",
  "date" : "2017-07-14T00:00:00",
  "entity_name" : "SABO TWO LLC",
  "city" : "NEW YORK",
  "type_of_base" : "BLACK CAR BASE",
  "latitude" : "40.752495",
  "telephone_number" : "9298889605",
  "shl_endorsed" : "No",
  "building" : "237",
  "license_number" : "B02908",
  "street" : "WEST   35 STREET  200",
  "location" : {
    "latitude" : "40.752495",
    "human_address" : "{\"address\":\"\",\"city\":\"\",\"state\":\"\",\"zip\":\"\"}",
    "needs_recoding" : false,
    "longitude" : "-73.991523"
  },
  "state" : "NY",
  "time" : "17:00:10",
  "longitude" : "-73.991523"
}
, {
  "zip" : "11354",
  "date" : "2017-07-14T00:00:00",
  "entity_name" : "TIFFANY'S CAR SERVICE INC.",
  "city" : "FLUSHING",
  "type_of_base" : "LIVERY BASE",
  "latitude" : "40.766346",
  "telephone_number" : "7189617070",
  "shl_endorsed" : "No",
  "building" : "33-03",
  "license_number" : "B02462",
  "street" : "PRINCE STREET",
  "location" : {
    "latitude" : "40.766346",
    "human_address" : "{\"address\":\"\",\"city\":\"\",\"state\":\"\",\"zip\":\"\"}",
    "needs_recoding" : false,
    "longitude" : "-73.833181"
  },
  "state" : "NY",
  "time" : "17:00:10",
  "longitude" : "-73.833181"
}
, {
  "zip" : "11223",
  "date" : "2017-07-14T00:00:00",
  "entity_name" : "GARAGE AMBLT SVC INC",
  "city" : "BROOKLYN",
  "type_of_base" : "PARATRANSIT BASE",
  "latitude" : "40.591779",
  "telephone_number" : "2122031823",
  "shl_endorsed" : "No",
  "building" : "2667",
  "license_number" : "B90238",
  "street" : "CONEY ISLAND AVE  SUITE D",
  "location" : {
    "latitude" : "40.591779",
    "human_address" : "{\"address\":\"\",\"city\":\"\",\"state\":\"\",\"zip\":\"\"}",
    "needs_recoding" : false,
    "longitude" : "-73.960354"
  },
  "state" : "NY",
  "time" : "17:00:10",
  "longitude" : "-73.960354"
}
, {
  "zip" : "11235",
  "date" : "2017-07-14T00:00:00",
  "entity_name" : "BBA MANAGEMENT INC.",
  "city" : "BROOKLYN",
  "type_of_base" : "LIVERY BASE",
  "latitude" : "40.577118",
  "telephone_number" : "7189344444",
  "shl_endorsed" : "No",
  "building" : "424",
  "license_number" : "B01629",
  "street" : "BRIGHTON BEACH AVENUE",
  "location" : {
    "latitude" : "40.577118",
    "human_address" : "{\"address\":\"\",\"city\":\"\",\"state\":\"\",\"zip\":\"\"}",
    "needs_recoding" : false,
    "longitude" : "-73.96247"
  },
  "state" : "NY",
  "time" : "17:00:10",
  "longitude" : "-73.96247"
}
, {
  "zip" : "07110",
  "date" : "2017-07-14T00:00:00",
  "entity_name" : "BER LIMOUSINE INC.",
  "city" : "NUTLEY",
  "type_of_base" : "LUXURY/LIMOUSINE",
  "latitude" : "40.823087",
  "telephone_number" : "2126478400",
  "shl_endorsed" : "No",
  "building" : "492",
  "license_number" : "B02113",
  "street" : "FRANKLYN AVENUE",
  "location" : {
    "latitude" : "40.823087",
    "human_address" : "{\"address\":\"\",\"city\":\"\",\"state\":\"\",\"zip\":\"\"}",
    "needs_recoding" : false,
    "longitude" : "-74.155516"
  },
  "state" : "NJ",
  "time" : "17:00:10",
  "longitude" : "-74.155516"
}
, {
  "zip" : "11235",
  "date" : "2017-07-14T00:00:00",
  "entity_name" : "M U UNITED, INC",
  "city" : "BROOKLYN",
  "type_of_base" : "LIVERY BASE",
  "latitude" : "40.576605",
  "telephone_number" : "7183327500",
  "shl_endorsed" : "Yes",
  "building" : "3089",
  "license_number" : "B01021",
  "street" : "BRIGHTON    3 STREET",
  "location" : {
    "latitude" : "40.576605",
    "human_address" : "{\"address\":\"\",\"city\":\"\",\"state\":\"\",\"zip\":\"\"}",
    "needs_recoding" : false,
    "longitude" : "-73.964086"
  },
  "state" : "NY",
  "time" : "17:00:10",
  "longitude" : "-73.964086"
}
, {
  "zip" : "11432",
  "date" : "2017-07-14T00:00:00",
  "entity_name" : "JPAN TRANSPORTATION INC",
  "city" : "JAMAICA",
  "type_of_base" : "LIVERY BASE",
  "latitude" : "40.707728",
  "telephone_number" : "7182063300",
  "shl_endorsed" : "Yes",
  "building" : "159-06",
  "license_number" : "B01510",
  "street" : "HILLSIDE AVENUE",
  "location" : {
    "latitude" : "40.707728",
    "human_address" : "{\"address\":\"\",\"city\":\"\",\"state\":\"\",\"zip\":\"\"}",
    "needs_recoding" : false,
    "longitude" : "-73.8025"
  },
  "state" : "NY",
  "time" : "17:00:10",
  "longitude" : "-73.8025"
}
, {
  "zip" : "11421",
  "date" : "2017-07-14T00:00:00",
  "entity_name" : "EXCLUSIVE AMBULETTE SERVICE, INC.",
  "city" : "WOODHAVEN",
  "type_of_base" : "PARATRANSIT BASE",
  "latitude" : "40.68521",
  "telephone_number" : "7183275500",
  "shl_endorsed" : "No",
  "building" : "76-16",
  "license_number" : "B90677",
  "street" : "ROCKAWAY BOULEVARD",
  "location" : {
    "latitude" : "40.68521",
    "human_address" : "{\"address\":\"\",\"city\":\"\",\"state\":\"\",\"zip\":\"\"}",
    "needs_recoding" : false,
    "longitude" : "-73.863542"
  },
  "state" : "NY",
  "time" : "17:00:10",
  "longitude" : "-73.863542"
}
, {
  "zip" : "10473",
  "date" : "2017-07-14T00:00:00",
  "entity_name" : "DLS TRANSPORTATION CORP.",
  "city" : "BRONX",
  "type_of_base" : "BLACK CAR BASE",
  "latitude" : "40.823574",
  "telephone_number" : "7182850357",
  "shl_endorsed" : "No",
  "building" : "914",
  "license_number" : "B02846",
  "street" : "SOUNDVIEW AVENUE  2ND FL.",
  "location" : {
    "latitude" : "40.823574",
    "human_address" : "{\"address\":\"\",\"city\":\"\",\"state\":\"\",\"zip\":\"\"}",
    "needs_recoding" : false,
    "longitude" : "-73.867859"
  },
  "state" : "NY",
  "time" : "17:00:10",
  "longitude" : "-73.867859"
}
, {
  "zip" : "11234",
  "date" : "2017-07-14T00:00:00",
  "entity_name" : "WINTHROP HOLDING OF NEW YORK, INC",
  "city" : "BROOKLYN",
  "type_of_base" : "LIVERY BASE",
  "latitude" : "40.634075",
  "telephone_number" : "7182414645",
  "shl_endorsed" : "No",
  "building" : "5924",
  "license_number" : "B00536",
  "street" : "GLENWOOD ROAD",
  "location" : {
    "latitude" : "40.634075",
    "human_address" : "{\"address\":\"\",\"city\":\"\",\"state\":\"\",\"zip\":\"\"}",
    "needs_recoding" : false,
    "longitude" : "-73.919437"
  },
  "state" : "NY",
  "time" : "17:00:10",
  "longitude" : "-73.919437"
}
, {
  "zip" : "11358",
  "date" : "2017-07-14T00:00:00",
  "entity_name" : "FLUSHING LIMO TRANSP CORP",
  "city" : "FLUSHING",
  "type_of_base" : "LIVERY BASE",
  "latitude" : "40.76236",
  "telephone_number" : "7183581111",
  "shl_endorsed" : "No",
  "building" : "36-09",
  "license_number" : "B01711",
  "street" : "164 STREET",
  "location" : {
    "latitude" : "40.76236",
    "human_address" : "{\"address\":\"\",\"city\":\"\",\"state\":\"\",\"zip\":\"\"}",
    "needs_recoding" : false,
    "longitude" : "-73.801615"
  },
  "state" : "NY",
  "time" : "17:00:10",
  "longitude" : "-73.801615"
}
, {
  "zip" : "11361",
  "date" : "2017-07-14T00:00:00",
  "entity_name" : "SHAMROCK DISPATCH INC",
  "city" : "BAYSIDE",
  "type_of_base" : "LIVERY BASE",
  "latitude" : "40.762829",
  "telephone_number" : "7182294141",
  "shl_endorsed" : "No",
  "building" : "212-35",
  "license_number" : "B00171",
  "street" : "42 AVENUE",
  "location" : {
    "latitude" : "40.762829",
    "human_address" : "{\"address\":\"\",\"city\":\"\",\"state\":\"\",\"zip\":\"\"}",
    "needs_recoding" : false,
    "longitude" : "-73.7718"
  },
  "state" : "NY",
  "time" : "17:00:10",
  "longitude" : "-73.7718"
}
, {
  "zip" : "11520",
  "date" : "2017-07-14T00:00:00",
  "entity_name" : "AMG TRANSPORTATION INC.",
  "city" : "FREEPORT",
  "type_of_base" : "PARATRANSIT BASE",
  "latitude" : "40.658652",
  "telephone_number" : "5167921674",
  "shl_endorsed" : "Yes",
  "building" : "30A",
  "license_number" : "B90568",
  "street" : "COMMERCIAL STREET",
  "location" : {
    "latitude" : "40.658652",
    "human_address" : "{\"address\":\"\",\"city\":\"\",\"state\":\"\",\"zip\":\"\"}",
    "needs_recoding" : false,
    "longitude" : "-73.580098"
  },
  "state" : "NY",
  "time" : "17:00:10",
  "longitude" : "-73.580098"
}
, {
  "zip" : "11214",
  "date" : "2017-07-14T00:00:00",
  "entity_name" : "ALLURE TRANSPORTATION INC",
  "city" : "BROOKLYN",
  "type_of_base" : "PARATRANSIT BASE",
  "latitude" : "40.605834",
  "telephone_number" : "7182326571",
  "shl_endorsed" : "No",
  "building" : "8818",
  "license_number" : "B90628",
  "street" : "16 AVENUE",
  "location" : {
    "latitude" : "40.605834",
    "human_address" : "{\"address\":\"\",\"city\":\"\",\"state\":\"\",\"zip\":\"\"}",
    "needs_recoding" : false,
    "longitude" : "-74.012143"
  },
  "state" : "NY",
  "time" : "17:00:10",
  "longitude" : "-74.012143"
}
, {
  "zip" : "10451",
  "date" : "2017-07-14T00:00:00",
  "entity_name" : "ON LINE LIMOUSINE LLC",
  "city" : "BRONX",
  "type_of_base" : "BLACK CAR BASE",
  "latitude" : "40.8153",
  "telephone_number" : "2129232281",
  "shl_endorsed" : "No",
  "building" : "349",
  "license_number" : "B01875",
  "street" : "GRAND CONCOURSE",
  "location" : {
    "latitude" : "40.8153",
    "human_address" : "{\"address\":\"\",\"city\":\"\",\"state\":\"\",\"zip\":\"\"}",
    "needs_recoding" : false,
    "longitude" : "-73.929004"
  },
  "state" : "NY",
  "time" : "17:00:10",
  "longitude" : "-73.929004"
}
, {
  "zip" : "11385",
  "date" : "2017-07-14T00:00:00",
  "entity_name" : "LIBERTY CAR SERVICE INC.",
  "city" : "RIDGEWOOD",
  "type_of_base" : "LIVERY BASE",
  "latitude" : "40.70305",
  "telephone_number" : "7183666666",
  "shl_endorsed" : "No",
  "building" : "689",
  "license_number" : "B00095",
  "street" : "SENECA AVENUE",
  "location" : {
    "latitude" : "40.70305",
    "human_address" : "{\"address\":\"\",\"city\":\"\",\"state\":\"\",\"zip\":\"\"}",
    "needs_recoding" : false,
    "longitude" : "-73.907668"
  },
  "state" : "NY",
  "time" : "17:00:10",
  "longitude" : "-73.907668"
}
, {
  "zip" : "11419",
  "date" : "2017-07-14T00:00:00",
  "entity_name" : "DESTINY CAR & LIMO SERVICE INC.",
  "city" : "RICHMONDHILL",
  "type_of_base" : "LIVERY BASE",
  "latitude" : "40.687984",
  "telephone_number" : "7188054500",
  "shl_endorsed" : "No",
  "building" : "110-01",
  "license_number" : "B02338",
  "street" : "101 AVENUE",
  "location" : {
    "latitude" : "40.687984",
    "human_address" : "{\"address\":\"\",\"city\":\"\",\"state\":\"\",\"zip\":\"\"}",
    "needs_recoding" : false,
    "longitude" : "-73.8337"
  },
  "state" : "NY",
  "time" : "17:00:10",
  "longitude" : "-73.8337"
}
, {
  "zip" : "11377",
  "date" : "2017-07-14T00:00:00",
  "entity_name" : "NEW PUEBLA CAR & LIMOUSINE SERVICE INC.",
  "city" : "WOODSIDE",
  "type_of_base" : "LIVERY BASE",
  "latitude" : "40.735543",
  "telephone_number" : "7184586464",
  "shl_endorsed" : "No",
  "building" : "69-35",
  "license_number" : "B01674",
  "street" : "51 AVENUE",
  "location" : {
    "latitude" : "40.735543",
    "human_address" : "{\"address\":\"\",\"city\":\"\",\"state\":\"\",\"zip\":\"\"}",
    "needs_recoding" : false,
    "longitude" : "-73.894946"
  },
  "state" : "NY",
  "time" : "17:00:10",
  "longitude" : "-73.894946"
}
, {
  "zip" : "07834",
  "date" : "2017-07-14T00:00:00",
  "entity_name" : "ROYAL COACHMAN LTD.",
  "city" : "DENVILE",
  "type_of_base" : "LUXURY/LIMOUSINE",
  "latitude" : "40.910474",
  "telephone_number" : "9734003200",
  "shl_endorsed" : "No",
  "building" : "88",
  "license_number" : "B02061",
  "street" : "FORD ROAD  UNIT 26",
  "location" : {
    "latitude" : "40.910474",
    "human_address" : "{\"address\":\"\",\"city\":\"\",\"state\":\"\",\"zip\":\"\"}",
    "needs_recoding" : false,
    "longitude" : "-74.496064"
  },
  "state" : "NJ",
  "time" : "17:00:10",
  "longitude" : "-74.496064"
}
, {
  "zip" : "11220",
  "date" : "2017-07-14T00:00:00",
  "entity_name" : "SUPER FAST LIMOUSINE SERVICE, INC.",
  "city" : "BROOKLYN",
  "type_of_base" : "BLACK CAR BASE",
  "latitude" : "40.64816",
  "telephone_number" : "7184386262",
  "shl_endorsed" : "No",
  "building" : "4405",
  "license_number" : "B02352",
  "street" : "5 AVENUE",
  "location" : {
    "latitude" : "40.64816",
    "human_address" : "{\"address\":\"\",\"city\":\"\",\"state\":\"\",\"zip\":\"\"}",
    "needs_recoding" : false,
    "longitude" : "-74.00679"
  },
  "state" : "NY",
  "time" : "17:00:10",
  "longitude" : "-74.00679"
}
, {
  "zip" : "11235",
  "date" : "2017-07-14T00:00:00",
  "entity_name" : "TEJET EXPRESS TRANSPORTATION INC.",
  "city" : "BROOKLYN",
  "type_of_base" : "PARATRANSIT BASE",
  "latitude" : "40.589048",
  "telephone_number" : "7182527272",
  "shl_endorsed" : "No",
  "building" : "2309",
  "license_number" : "B90671",
  "street" : "AVENUE Z  2ND FL.",
  "location" : {
    "latitude" : "40.589048",
    "human_address" : "{\"address\":\"\",\"city\":\"\",\"state\":\"\",\"zip\":\"\"}",
    "needs_recoding" : false,
    "longitude" : "-73.946163"
  },
  "state" : "NY",
  "time" : "17:00:10",
  "longitude" : "-73.946163"
}
, {
  "zip" : "11354",
  "date" : "2017-07-14T00:00:00",
  "entity_name" : "COZY RIDE LIMOUSINE INC",
  "city" : "FLUSHING",
  "type_of_base" : "BLACK CAR BASE",
  "latitude" : "40.763441",
  "telephone_number" : "7183595000",
  "shl_endorsed" : "No",
  "building" : "36-26",
  "license_number" : "B02532",
  "street" : "UNION STREET  3RD FLR",
  "location" : {
    "latitude" : "40.763441",
    "human_address" : "{\"address\":\"\",\"city\":\"\",\"state\":\"\",\"zip\":\"\"}",
    "needs_recoding" : false,
    "longitude" : "-73.828039"
  },
  "state" : "NY",
  "time" : "17:00:10",
  "longitude" : "-73.828039"
}
, {
  "zip" : "11357",
  "date" : "2017-07-14T00:00:00",
  "entity_name" : "JOE M LEASING CORP",
  "city" : "WHITESTONE",
  "type_of_base" : "LIVERY BASE",
  "latitude" : "40.789522",
  "telephone_number" : "7187462222",
  "shl_endorsed" : "No",
  "building" : "150-18",
  "license_number" : "B00445",
  "street" : "12 ROAD",
  "location" : {
    "latitude" : "40.789522",
    "human_address" : "{\"address\":\"\",\"city\":\"\",\"state\":\"\",\"zip\":\"\"}",
    "needs_recoding" : false,
    "longitude" : "-73.813228"
  },
  "state" : "NY",
  "time" : "17:00:10",
  "longitude" : "-73.813228"
}
, {
  "zip" : "11106",
  "date" : "2017-07-14T00:00:00",
  "entity_name" : "VALERA GLOBAL, INC.",
  "city" : "LIC",
  "type_of_base" : "LUXURY/LIMOUSINE",
  "latitude" : "40.740256",
  "telephone_number" : "7184331111",
  "shl_endorsed" : "No",
  "building" : "36-36",
  "license_number" : "B02285",
  "street" : "33 STREET  SUITE 308",
  "location" : {
    "latitude" : "40.740256",
    "human_address" : "{\"address\":\"\",\"city\":\"\",\"state\":\"\",\"zip\":\"\"}",
    "needs_recoding" : false,
    "longitude" : "-73.952684"
  },
  "state" : "NY",
  "time" : "17:00:10",
  "longitude" : "-73.952684"
}
, {
  "zip" : "11211",
  "date" : "2017-07-14T00:00:00",
  "entity_name" : "UNITED LIMO C/M SVC CORP",
  "city" : "BROOKLYN",
  "type_of_base" : "LIVERY BASE",
  "latitude" : "40.706479",
  "telephone_number" : "7183876175",
  "shl_endorsed" : "No",
  "building" : "208",
  "license_number" : "B01009",
  "street" : "ROSS STREET",
  "location" : {
    "latitude" : "40.706479",
    "human_address" : "{\"address\":\"\",\"city\":\"\",\"state\":\"\",\"zip\":\"\"}",
    "needs_recoding" : false,
    "longitude" : "-73.958924"
  },
  "state" : "NY",
  "time" : "17:00:10",
  "longitude" : "-73.958924"
}
, {
  "zip" : "10025",
  "date" : "2017-07-14T00:00:00",
  "entity_name" : "NEW FAMILY RAD DISP INC",
  "city" : "NEW YORK",
  "type_of_base" : "LIVERY BASE",
  "latitude" : "40.799069",
  "telephone_number" : "2127497777",
  "shl_endorsed" : "No",
  "building" : "72",
  "license_number" : "B01527",
  "street" : "WEST  106 STREET",
  "location" : {
    "latitude" : "40.799069",
    "human_address" : "{\"address\":\"\",\"city\":\"\",\"state\":\"\",\"zip\":\"\"}",
    "needs_recoding" : false,
    "longitude" : "-73.962505"
  },
  "state" : "NY",
  "time" : "17:00:10",
  "longitude" : "-73.962505"
}
, {
  "zip" : "11101",
  "date" : "2017-07-14T00:00:00",
  "entity_name" : "7 STAR CAR & LIMOUSINE INC.",
  "city" : "LONG ISLAND CIT",
  "type_of_base" : "LIVERY BASE",
  "latitude" : "40.745471",
  "telephone_number" : "7187076166",
  "shl_endorsed" : "No",
  "building" : "43-23",
  "license_number" : "B02465",
  "street" : "35 STREET",
  "location" : {
    "latitude" : "40.745471",
    "human_address" : "{\"address\":\"\",\"city\":\"\",\"state\":\"\",\"zip\":\"\"}",
    "needs_recoding" : false,
    "longitude" : "-73.92933"
  },
  "state" : "NY",
  "time" : "17:00:10",
  "longitude" : "-73.92933"
}
, {
  "zip" : "11235",
  "date" : "2017-07-14T00:00:00",
  "entity_name" : "LA MORENITA CAR LIMO SERVICE INC",
  "city" : "BROOKLYN",
  "type_of_base" : "LIVERY BASE",
  "latitude" : "40.579811",
  "telephone_number" : "7186150039",
  "shl_endorsed" : "No",
  "building" : "115",
  "license_number" : "B02315",
  "street" : "BRIGHTON   11 STREET",
  "location" : {
    "latitude" : "40.579811",
    "human_address" : "{\"address\":\"\",\"city\":\"\",\"state\":\"\",\"zip\":\"\"}",
    "needs_recoding" : false,
    "longitude" : "-73.95744"
  },
  "state" : "NY",
  "time" : "17:00:10",
  "longitude" : "-73.95744"
}
, {
  "zip" : "11101",
  "date" : "2017-07-14T00:00:00",
  "entity_name" : "DIAL 7 CAR & LIMOUSINE SERVICE INC.",
  "city" : "LONG ISLANDCITY",
  "type_of_base" : "LIVERY BASE",
  "latitude" : "40.745471",
  "telephone_number" : "2127777777",
  "shl_endorsed" : "No",
  "building" : "43-23",
  "license_number" : "B00887",
  "street" : "35 STREET",
  "location" : {
    "latitude" : "40.745471",
    "human_address" : "{\"address\":\"\",\"city\":\"\",\"state\":\"\",\"zip\":\"\"}",
    "needs_recoding" : false,
    "longitude" : "-73.929332"
  },
  "state" : "NY",
  "time" : "17:00:10",
  "longitude" : "-73.929332"
}
, {
  "zip" : "10457",
  "date" : "2017-07-14T00:00:00",
  "entity_name" : "THE EXCELLENT C/S INC",
  "city" : "BRONX",
  "type_of_base" : "LIVERY BASE",
  "latitude" : "40.844708",
  "telephone_number" : "7187319110",
  "shl_endorsed" : "Yes",
  "building" : "144",
  "license_number" : "B00375",
  "street" : "EAST  174 STREET",
  "location" : {
    "latitude" : "40.844708",
    "human_address" : "{\"address\":\"\",\"city\":\"\",\"state\":\"\",\"zip\":\"\"}",
    "needs_recoding" : false,
    "longitude" : "-73.90983"
  },
  "state" : "NY",
  "time" : "17:00:10",
  "longitude" : "-73.90983"
}
, {
  "zip" : "11101",
  "date" : "2017-07-14T00:00:00",
  "entity_name" : "CAREY LIMO N Y INC",
  "city" : "L.I.C",
  "type_of_base" : "LUXURY/LIMOUSINE",
  "latitude" : "40.740878",
  "telephone_number" : "7188981000",
  "shl_endorsed" : "No",
  "building" : "27-10",
  "license_number" : "B00837",
  "street" : "49 AVENUE",
  "location" : {
    "latitude" : "40.740878",
    "human_address" : "{\"address\":\"\",\"city\":\"\",\"state\":\"\",\"zip\":\"\"}",
    "needs_recoding" : false,
    "longitude" : "-73.942043"
  },
  "state" : "NY",
  "time" : "17:00:10",
  "longitude" : "-73.942043"
}
, {
  "zip" : "11230",
  "date" : "2017-07-14T00:00:00",
  "entity_name" : "R TRANSPORT INC",
  "city" : "BROOKLYN",
  "type_of_base" : "LIVERY BASE",
  "latitude" : "40.629493",
  "telephone_number" : "7188593400",
  "shl_endorsed" : "Yes",
  "building" : "1021",
  "license_number" : "B01614",
  "street" : "AVENUE H",
  "location" : {
    "latitude" : "40.629493",
    "human_address" : "{\"address\":\"\",\"city\":\"\",\"state\":\"\",\"zip\":\"\"}",
    "needs_recoding" : false,
    "longitude" : "-73.96644"
  },
  "state" : "NY",
  "time" : "17:00:10",
  "longitude" : "-73.96644"
}
, {
  "zip" : "10456",
  "date" : "2017-07-14T00:00:00",
  "entity_name" : "ULTRA RADIO DISP INC",
  "city" : "BRONX",
  "type_of_base" : "LIVERY BASE",
  "latitude" : "40.82939",
  "telephone_number" : "7189928000",
  "shl_endorsed" : "Yes",
  "building" : "277",
  "license_number" : "B01145",
  "street" : "EAST  165 STREET",
  "location" : {
    "latitude" : "40.82939",
    "human_address" : "{\"address\":\"\",\"city\":\"\",\"state\":\"\",\"zip\":\"\"}",
    "needs_recoding" : false,
    "longitude" : "-73.91607"
  },
  "state" : "NY",
  "time" : "17:00:10",
  "longitude" : "-73.91607"
}
, {
  "zip" : "10453",
  "date" : "2017-07-14T00:00:00",
  "entity_name" : "NEW COLLEGE CAR SVCE INC",
  "city" : "BRONX",
  "type_of_base" : "LIVERY BASE",
  "latitude" : "40.846778",
  "telephone_number" : "7187313333",
  "shl_endorsed" : "Yes",
  "building" : "1588",
  "license_number" : "B02653",
  "street" : "DR M L KING JR BOULEVARD",
  "location" : {
    "latitude" : "40.846778",
    "human_address" : "{\"address\":\"\",\"city\":\"\",\"state\":\"\",\"zip\":\"\"}",
    "needs_recoding" : false,
    "longitude" : "-73.920631"
  },
  "state" : "NY",
  "time" : "17:00:10",
  "longitude" : "-73.920631"
}
, {
  "zip" : "11418",
  "date" : "2017-07-14T00:00:00",
  "entity_name" : "KEW GARDENS ENTERPRISES INC.",
  "city" : "RICHMOND HILL",
  "type_of_base" : "LIVERY BASE",
  "latitude" : "40.70212",
  "telephone_number" : "7188466666",
  "shl_endorsed" : "No",
  "building" : "122-11",
  "license_number" : "B00337",
  "street" : "HILLSIDE AVENUE",
  "location" : {
    "latitude" : "40.70212",
    "human_address" : "{\"address\":\"\",\"city\":\"\",\"state\":\"\",\"zip\":\"\"}",
    "needs_recoding" : false,
    "longitude" : "-73.82873"
  },
  "state" : "NY",
  "time" : "17:00:10",
  "longitude" : "-73.82873"
}
, {
  "zip" : "10474",
  "date" : "2017-07-14T00:00:00",
  "entity_name" : "ADVANCED LUXURY LIMO SVC. INC.",
  "city" : "BRONX",
  "type_of_base" : "BLACK CAR BASE",
  "latitude" : "40.833404",
  "telephone_number" : "7182312188",
  "shl_endorsed" : "No",
  "building" : "3945",
  "license_number" : "B02833",
  "street" : "PROVOST AVENUE",
  "location" : {
    "latitude" : "40.833404",
    "human_address" : "{\"address\":\"\",\"city\":\"\",\"state\":\"\",\"zip\":\"\"}",
    "needs_recoding" : false,
    "longitude" : "-73.84037"
  },
  "state" : "NY",
  "time" : "17:00:10",
  "longitude" : "-73.84037"
}
, {
  "zip" : "11203",
  "date" : "2017-07-14T00:00:00",
  "entity_name" : "ALL PEOPLE CAR SERVICE INC.",
  "city" : "BROOKLYN",
  "type_of_base" : "LIVERY BASE",
  "latitude" : "40.650332",
  "telephone_number" : "7182823700",
  "shl_endorsed" : "No",
  "building" : "932",
  "license_number" : "B01343",
  "street" : "UTICA AVENUE",
  "location" : {
    "latitude" : "40.650332",
    "human_address" : "{\"address\":\"\",\"city\":\"\",\"state\":\"\",\"zip\":\"\"}",
    "needs_recoding" : false,
    "longitude" : "-73.930492"
  },
  "state" : "NY",
  "time" : "17:00:10",
  "longitude" : "-73.930492"
}
, {
  "zip" : "11213",
  "date" : "2017-07-14T00:00:00",
  "entity_name" : "RESCUE C/S INC",
  "city" : "BROOKLYN",
  "type_of_base" : "LIVERY BASE",
  "latitude" : "40.672213",
  "telephone_number" : "7183630200",
  "shl_endorsed" : "No",
  "building" : "264",
  "license_number" : "B00652",
  "street" : "TROY AVENUE  1FL",
  "location" : {
    "latitude" : "40.672213",
    "human_address" : "{\"address\":\"\",\"city\":\"\",\"state\":\"\",\"zip\":\"\"}",
    "needs_recoding" : false,
    "longitude" : "-73.93892"
  },
  "state" : "NY",
  "time" : "17:00:10",
  "longitude" : "-73.93892"
}
, {
  "zip" : "10026",
  "date" : "2017-07-14T00:00:00",
  "entity_name" : "NEW HARLEM C/S INC",
  "city" : "NEW YORK",
  "type_of_base" : "LIVERY BASE",
  "latitude" : "40.804257",
  "telephone_number" : "2126639090",
  "shl_endorsed" : "Yes",
  "building" : "1940",
  "license_number" : "B01355",
  "street" : "ADAM CLAYTON POWELL BOULEVARD",
  "location" : {
    "latitude" : "40.804257",
    "human_address" : "{\"address\":\"\",\"city\":\"\",\"state\":\"\",\"zip\":\"\"}",
    "needs_recoding" : false,
    "longitude" : "-73.952299"
  },
  "state" : "NY",
  "time" : "17:00:10",
  "longitude" : "-73.952299"
}
, {
  "zip" : "11106",
  "date" : "2017-07-14T00:00:00",
  "entity_name" : "CITY LIMOUSINE TRANSPORTATION INC.",
  "city" : "LONG ISLAND CIT",
  "type_of_base" : "LIVERY BASE",
  "latitude" : "40.761054",
  "telephone_number" : "7189472500",
  "shl_endorsed" : "No",
  "building" : "35-58",
  "license_number" : "B02694",
  "street" : "12 STREET",
  "location" : {
    "latitude" : "40.761054",
    "human_address" : "{\"address\":\"\",\"city\":\"\",\"state\":\"\",\"zip\":\"\"}",
    "needs_recoding" : false,
    "longitude" : "-73.93929"
  },
  "state" : "NY",
  "time" : "17:00:10",
  "longitude" : "-73.93929"
}
, {
  "zip" : "10467",
  "date" : "2017-07-14T00:00:00",
  "entity_name" : "C & A BLACK CAR CORP.",
  "city" : "BRONX",
  "type_of_base" : "BLACK CAR BASE",
  "latitude" : "40.871095",
  "telephone_number" : "7186553333",
  "shl_endorsed" : "No",
  "building" : "3106",
  "license_number" : "B02917",
  "street" : "WEBSTER AVENUE",
  "location" : {
    "latitude" : "40.871095",
    "human_address" : "{\"address\":\"\",\"city\":\"\",\"state\":\"\",\"zip\":\"\"}",
    "needs_recoding" : false,
    "longitude" : "-73.876751"
  },
  "state" : "NY",
  "time" : "17:00:10",
  "longitude" : "-73.876751"
}
, {
  "zip" : "10035",
  "date" : "2017-07-14T00:00:00",
  "entity_name" : "U N C CAR & LIMO SERVICE",
  "city" : "NEW YORK",
  "type_of_base" : "LIVERY BASE",
  "latitude" : "40.797865",
  "telephone_number" : "2124272727",
  "shl_endorsed" : "Yes",
  "building" : "2319",
  "license_number" : "B00882",
  "street" : "1ST AVENUE",
  "location" : {
    "latitude" : "40.797865",
    "human_address" : "{\"address\":\"\",\"city\":\"\",\"state\":\"\",\"zip\":\"\"}",
    "needs_recoding" : false,
    "longitude" : "-73.93448"
  },
  "state" : "NY",
  "time" : "17:00:10",
  "longitude" : "-73.93448"
}
, {
  "zip" : "11105",
  "date" : "2017-07-14T00:00:00",
  "entity_name" : "GOLDEN TOUCH TRANSPORTATION OF NY, INC.",
  "city" : "ASTORIA",
  "type_of_base" : "LUXURY/LIMOUSINE",
  "latitude" : "40.770551",
  "telephone_number" : "7188865204",
  "shl_endorsed" : "No",
  "building" : "45-02",
  "license_number" : "B01964",
  "street" : "DITMARS BOULEVARD  SUITE #19",
  "location" : {
    "latitude" : "40.770551",
    "human_address" : "{\"address\":\"\",\"city\":\"\",\"state\":\"\",\"zip\":\"\"}",
    "needs_recoding" : false,
    "longitude" : "-73.902827"
  },
  "state" : "NY",
  "time" : "17:00:10",
  "longitude" : "-73.902827"
}
, {
  "zip" : "11354",
  "date" : "2017-07-14T00:00:00",
  "entity_name" : "ASIANA LIMOUSINE INC.",
  "city" : "FLUSHING",
  "type_of_base" : "LUXURY/LIMOUSINE",
  "latitude" : "40.761168",
  "telephone_number" : "2125710080",
  "shl_endorsed" : "No",
  "building" : "37-19",
  "license_number" : "B02252",
  "street" : "MAIN STREET  SUITE 2C",
  "location" : {
    "latitude" : "40.761168",
    "human_address" : "{\"address\":\"\",\"city\":\"\",\"state\":\"\",\"zip\":\"\"}",
    "needs_recoding" : false,
    "longitude" : "-73.830606"
  },
  "state" : "NY",
  "time" : "17:00:10",
  "longitude" : "-73.830606"
}
, {
  "zip" : "11572",
  "date" : "2017-07-14T00:00:00",
  "entity_name" : "MURRAY'S LIMOUSINE SERVICE INC.",
  "city" : "OCEANSIDE",
  "type_of_base" : "LUXURY/LIMOUSINE",
  "latitude" : "40.640548",
  "telephone_number" : "5165369600",
  "shl_endorsed" : "No",
  "building" : "2901",
  "license_number" : "B02175",
  "street" : "LONG BEACH RD  SUITE 7",
  "location" : {
    "latitude" : "40.640548",
    "human_address" : "{\"address\":\"\",\"city\":\"\",\"state\":\"\",\"zip\":\"\"}",
    "needs_recoding" : false,
    "longitude" : "-73.639555"
  },
  "state" : "NY",
  "time" : "17:00:10",
  "longitude" : "-73.639555"
}
, {
  "zip" : "11101",
  "date" : "2017-07-14T00:00:00",
  "entity_name" : "LONDON TOWNCARS INC",
  "city" : "L.I.C",
  "type_of_base" : "LUXURY/LIMOUSINE",
  "latitude" : "40.754052",
  "telephone_number" : "7187869700",
  "shl_endorsed" : "No",
  "building" : "40-14",
  "license_number" : "B00001",
  "street" : "23 STREET",
  "location" : {
    "latitude" : "40.754052",
    "human_address" : "{\"address\":\"\",\"city\":\"\",\"state\":\"\",\"zip\":\"\"}",
    "needs_recoding" : false,
    "longitude" : "-73.940055"
  },
  "state" : "NY",
  "time" : "17:00:10",
  "longitude" : "-73.940055"
}
, {
  "zip" : "10567",
  "date" : "2017-07-14T00:00:00",
  "entity_name" : "ANNSUNCHO CONSULTANTS LTD",
  "city" : "CORTLANDT MANOR",
  "type_of_base" : "PARATRANSIT BASE",
  "latitude" : "41.31664",
  "telephone_number" : "9145392848",
  "shl_endorsed" : "No",
  "building" : "30",
  "license_number" : "B90717",
  "street" : "FAWN RIDGE DR",
  "location" : {
    "latitude" : "41.31664",
    "human_address" : "{\"address\":\"\",\"city\":\"\",\"state\":\"\",\"zip\":\"\"}",
    "needs_recoding" : false,
    "longitude" : "-73.878666"
  },
  "state" : "NY",
  "time" : "17:00:10",
  "longitude" : "-73.878666"
}
, {
  "zip" : "11729",
  "date" : "2017-07-14T00:00:00",
  "entity_name" : "TEINETCO, INC",
  "city" : "DEER PARK",
  "type_of_base" : "LUXURY/LIMOUSINE",
  "latitude" : "40.743687",
  "telephone_number" : "6312433800",
  "shl_endorsed" : "No",
  "building" : "321",
  "license_number" : "B02435",
  "street" : "BAY SHORE ROAD",
  "location" : {
    "latitude" : "40.743687",
    "human_address" : "{\"address\":\"\",\"city\":\"\",\"state\":\"\",\"zip\":\"\"}",
    "needs_recoding" : false,
    "longitude" : "-73.310293"
  },
  "state" : "NY",
  "time" : "17:00:10",
  "longitude" : "-73.310293"
}
, {
  "zip" : "07201",
  "date" : "2017-07-14T00:00:00",
  "entity_name" : "HARRISON GLOBAL LLC",
  "city" : "ELIZABETH",
  "type_of_base" : "LUXURY/LIMOUSINE",
  "latitude" : "40.672805",
  "telephone_number" : "7188917220",
  "shl_endorsed" : "No",
  "building" : "780",
  "license_number" : "B02120",
  "street" : "DOWD AVENUE",
  "location" : {
    "latitude" : "40.672805",
    "human_address" : "{\"address\":\"\",\"city\":\"\",\"state\":\"\",\"zip\":\"\"}",
    "needs_recoding" : false,
    "longitude" : "-74.191579"
  },
  "state" : "NJ",
  "time" : "17:00:10",
  "longitude" : "-74.191579"
}
, {
  "zip" : "10305",
  "date" : "2017-07-14T00:00:00",
  "entity_name" : "J.J.S. TRANSPORTATION CO. INC.",
  "city" : "STATEN ISLAND",
  "type_of_base" : "LIVERY BASE",
  "latitude" : "40.595135",
  "telephone_number" : "7189796200",
  "shl_endorsed" : "No",
  "building" : "246",
  "license_number" : "B01379",
  "street" : "PARKINSON AVENUE",
  "location" : {
    "latitude" : "40.595135",
    "human_address" : "{\"address\":\"\",\"city\":\"\",\"state\":\"\",\"zip\":\"\"}",
    "needs_recoding" : false,
    "longitude" : "-74.082334"
  },
  "state" : "NY",
  "time" : "17:00:10",
  "longitude" : "-74.082334"
}
, {
  "zip" : "11355",
  "date" : "2017-07-14T00:00:00",
  "entity_name" : "G & E EXPRESS INC",
  "city" : "BROOKLYN",
  "type_of_base" : "COMMUTER VAN AUTHORITY BASE",
  "latitude" : "40.749453",
  "telephone_number" : "7185397777",
  "shl_endorsed" : "No",
  "building" : "133-56",
  "license_number" : "B80102",
  "street" : "41ST AVENUE  101",
  "location" : {
    "latitude" : "40.749453",
    "human_address" : "{\"address\":\"\",\"city\":\"\",\"state\":\"\",\"zip\":\"\"}",
    "needs_recoding" : false,
    "longitude" : "-73.93551"
  },
  "state" : "NY",
  "time" : "17:00:10",
  "longitude" : "-73.93551"
}
, {
  "zip" : "11370",
  "date" : "2017-07-14T00:00:00",
  "entity_name" : "844 LIMO CAR INC.",
  "city" : "EAST ELMHURST",
  "type_of_base" : "BLACK CAR BASE",
  "latitude" : "40.765513",
  "telephone_number" : "7183122830",
  "shl_endorsed" : "No",
  "building" : "2357",
  "license_number" : "B02894",
  "street" : "83 STREET",
  "location" : {
    "latitude" : "40.765513",
    "human_address" : "{\"address\":\"\",\"city\":\"\",\"state\":\"\",\"zip\":\"\"}",
    "needs_recoding" : false,
    "longitude" : "-73.88595"
  },
  "state" : "NY",
  "time" : "17:00:10",
  "longitude" : "-73.88595"
}
, {
  "zip" : "06902",
  "date" : "2017-07-14T00:00:00",
  "entity_name" : "PRIME TIME LIMOUSINE INC.",
  "city" : "STAMFORD",
  "type_of_base" : "LUXURY/LIMOUSINE",
  "latitude" : "41.046382",
  "telephone_number" : "2033483199",
  "shl_endorsed" : "No",
  "building" : "30",
  "license_number" : "B02724",
  "street" : "COMMERCE ROAD",
  "location" : {
    "latitude" : "41.046382",
    "human_address" : "{\"address\":\"\",\"city\":\"\",\"state\":\"\",\"zip\":\"\"}",
    "needs_recoding" : false,
    "longitude" : "-73.56163"
  },
  "state" : "CT",
  "time" : "17:00:10",
  "longitude" : "-73.56163"
}
, {
  "zip" : "11696",
  "date" : "2017-07-14T00:00:00",
  "entity_name" : "HUNTER AMBULETTE AMBUL INC",
  "city" : "INWOOD",
  "type_of_base" : "PARATRANSIT BASE",
  "latitude" : "40.612075",
  "telephone_number" : "5163712622",
  "shl_endorsed" : "No",
  "building" : "28",
  "license_number" : "B90149",
  "street" : "SHERIDAN BOULEVARD",
  "location" : {
    "latitude" : "40.612075",
    "human_address" : "{\"address\":\"\",\"city\":\"\",\"state\":\"\",\"zip\":\"\"}",
    "needs_recoding" : false,
    "longitude" : "-73.752768"
  },
  "state" : "NY",
  "time" : "17:00:10",
  "longitude" : "-73.752768"
}
, {
  "zip" : "10457",
  "date" : "2017-07-14T00:00:00",
  "entity_name" : "LINCOLN LIMO SVCE INC",
  "city" : "BRONX",
  "type_of_base" : "LIVERY BASE",
  "latitude" : "40.850716",
  "telephone_number" : "2125715275",
  "shl_endorsed" : "No",
  "building" : "4371",
  "license_number" : "B00619",
  "street" : "3 AVENUE",
  "location" : {
    "latitude" : "40.850716",
    "human_address" : "{\"address\":\"\",\"city\":\"\",\"state\":\"\",\"zip\":\"\"}",
    "needs_recoding" : false,
    "longitude" : "-73.894416"
  },
  "state" : "NY",
  "time" : "17:00:10",
  "longitude" : "-73.894416"
}
, {
  "zip" : "11378",
  "date" : "2017-07-14T00:00:00",
  "entity_name" : "KYOEI LIMOUSINE, INC.",
  "city" : "MASPETH",
  "type_of_base" : "LUXURY/LIMOUSINE",
  "latitude" : "40.722961",
  "telephone_number" : "7185395323",
  "shl_endorsed" : "No",
  "building" : "57-48",
  "license_number" : "B02152",
  "street" : "MASPETH AVENUE",
  "location" : {
    "latitude" : "40.722961",
    "human_address" : "{\"address\":\"\",\"city\":\"\",\"state\":\"\",\"zip\":\"\"}",
    "needs_recoding" : false,
    "longitude" : "-73.91031"
  },
  "state" : "NY",
  "time" : "17:00:10",
  "longitude" : "-73.91031"
}
, {
  "zip" : "11106",
  "date" : "2017-07-14T00:00:00",
  "entity_name" : "GRAND TRANSPORTATION SERVICES INC",
  "city" : "LIC",
  "type_of_base" : "BLACK CAR BASE",
  "latitude" : "40.755937",
  "telephone_number" : "7184334255",
  "shl_endorsed" : "Yes",
  "building" : "36-07",
  "license_number" : "B02932",
  "street" : "32 STREET",
  "location" : {
    "latitude" : "40.755937",
    "human_address" : "{\"address\":\"\",\"city\":\"\",\"state\":\"\",\"zip\":\"\"}",
    "needs_recoding" : false,
    "longitude" : "-73.928979"
  },
  "state" : "NY",
  "time" : "17:00:10",
  "longitude" : "-73.928979"
}
, {
  "zip" : "11204",
  "date" : "2017-07-14T00:00:00",
  "entity_name" : "GOOD FRIENDS CAR SERVICE INC",
  "city" : "BROOKYLN",
  "type_of_base" : "BLACK CAR BASE",
  "latitude" : "40.63186",
  "telephone_number" : "7188888200",
  "shl_endorsed" : "No",
  "building" : "4714",
  "license_number" : "B02989",
  "street" : "16 AVENUE",
  "location" : {
    "latitude" : "40.63186",
    "human_address" : "{\"address\":\"\",\"city\":\"\",\"state\":\"\",\"zip\":\"\"}",
    "needs_recoding" : false,
    "longitude" : "-73.984917"
  },
  "state" : "NY",
  "time" : "17:00:10",
  "longitude" : "-73.984917"
}
, {
  "zip" : "11436",
  "date" : "2017-07-14T00:00:00",
  "entity_name" : "OGO VAN SERVICE CORPORATION",
  "city" : "SOUTH OZONEPARK",
  "type_of_base" : "COMMUTER VAN AUTHORITY BASE",
  "latitude" : "40.682934",
  "telephone_number" : "7182093660",
  "shl_endorsed" : "No",
  "building" : "115-45",
  "license_number" : "B80112",
  "street" : "148 STREET",
  "location" : {
    "latitude" : "40.682934",
    "human_address" : "{\"address\":\"\",\"city\":\"\",\"state\":\"\",\"zip\":\"\"}",
    "needs_recoding" : false,
    "longitude" : "-73.793721"
  },
  "state" : "NY",
  "time" : "17:00:10",
  "longitude" : "-73.793721"
}
, {
  "zip" : "10033",
  "date" : "2017-07-14T00:00:00",
  "entity_name" : "PROFESSIONAL CAR SERVICE INC",
  "city" : "NEW YORK",
  "type_of_base" : "LIVERY BASE",
  "latitude" : "40.850482",
  "telephone_number" : "2129236565",
  "shl_endorsed" : "Yes",
  "building" : "376",
  "license_number" : "B00221",
  "street" : "AUDUBON AVENUE",
  "location" : {
    "latitude" : "40.850482",
    "human_address" : "{\"address\":\"\",\"city\":\"\",\"state\":\"\",\"zip\":\"\"}",
    "needs_recoding" : false,
    "longitude" : "-73.93131"
  },
  "state" : "NY",
  "time" : "17:00:10",
  "longitude" : "-73.93131"
}
, {
  "zip" : "11101",
  "date" : "2017-07-14T00:00:00",
  "entity_name" : "VITAL TRANSPORTATION INC.",
  "city" : "LIC",
  "type_of_base" : "BLACK CAR BASE",
  "latitude" : "40.746697",
  "telephone_number" : "7184722500",
  "shl_endorsed" : "No",
  "building" : "41-24",
  "license_number" : "B00789",
  "street" : "38 STREET",
  "location" : {
    "latitude" : "40.746697",
    "human_address" : "{\"address\":\"\",\"city\":\"\",\"state\":\"\",\"zip\":\"\"}",
    "needs_recoding" : false,
    "longitude" : "-73.926818"
  },
  "state" : "NY",
  "time" : "17:00:10",
  "longitude" : "-73.926818"
}
, {
  "zip" : "11231",
  "date" : "2017-07-14T00:00:00",
  "entity_name" : "CALL THREES LLC",
  "city" : "BROOKLYN",
  "type_of_base" : "LIVERY BASE",
  "latitude" : "40.678782",
  "telephone_number" : "2123333333",
  "shl_endorsed" : "No",
  "building" : "335",
  "license_number" : "B02491",
  "street" : "BOND STREET",
  "location" : {
    "latitude" : "40.678782",
    "human_address" : "{\"address\":\"\",\"city\":\"\",\"state\":\"\",\"zip\":\"\"}",
    "needs_recoding" : false,
    "longitude" : "-73.989979"
  },
  "state" : "NY",
  "time" : "17:00:10",
  "longitude" : "-73.989979"
}
, {
  "zip" : "11368",
  "date" : "2017-07-14T00:00:00",
  "entity_name" : "NORTH SHORE AMBU & OXY SVC INC",
  "city" : "CORONA",
  "type_of_base" : "PARATRANSIT BASE",
  "latitude" : "40.741034",
  "telephone_number" : "7184589300",
  "shl_endorsed" : "No",
  "building" : "110-18",
  "license_number" : "B90162",
  "street" : "CORONA AVENUE",
  "location" : {
    "latitude" : "40.741034",
    "human_address" : "{\"address\":\"\",\"city\":\"\",\"state\":\"\",\"zip\":\"\"}",
    "needs_recoding" : false,
    "longitude" : "-73.852125"
  },
  "state" : "NY",
  "time" : "17:00:10",
  "longitude" : "-73.852125"
}
, {
  "zip" : "10467",
  "date" : "2017-07-14T00:00:00",
  "entity_name" : "KJ TRANSPORTATION",
  "city" : "BRONX",
  "type_of_base" : "LIVERY BASE",
  "latitude" : "40.884924",
  "telephone_number" : "7185152600",
  "shl_endorsed" : "Yes",
  "building" : "11",
  "license_number" : "B02688",
  "street" : "EAST 213 STREET",
  "location" : {
    "latitude" : "40.884924",
    "human_address" : "{\"address\":\"\",\"city\":\"\",\"state\":\"\",\"zip\":\"\"}",
    "needs_recoding" : false,
    "longitude" : "-73.878591"
  },
  "state" : "NY",
  "time" : "17:00:10",
  "longitude" : "-73.878591"
}
, {
  "zip" : "11694",
  "date" : "2017-07-14T00:00:00",
  "entity_name" : "ROCAPULCO CAR SERVICE INC.",
  "city" : "ROCKAWAY PARK",
  "type_of_base" : "LIVERY BASE",
  "latitude" : "40.580524",
  "telephone_number" : "7184747100",
  "shl_endorsed" : "No",
  "building" : "239",
  "license_number" : "B00639",
  "street" : "BEACH  116 STREET",
  "location" : {
    "latitude" : "40.580524",
    "human_address" : "{\"address\":\"\",\"city\":\"\",\"state\":\"\",\"zip\":\"\"}",
    "needs_recoding" : false,
    "longitude" : "-73.837823"
  },
  "state" : "NY",
  "time" : "17:00:10",
  "longitude" : "-73.837823"
}
, {
  "zip" : "11223",
  "date" : "2017-07-14T00:00:00",
  "entity_name" : "M.J. TRANS CORP.",
  "city" : "BROOKLYN",
  "type_of_base" : "PARATRANSIT BASE",
  "latitude" : "40.602774",
  "telephone_number" : "7183330400",
  "shl_endorsed" : "Yes",
  "building" : "1788",
  "license_number" : "B90545",
  "street" : "STILLWELL AVENUE",
  "location" : {
    "latitude" : "40.602774",
    "human_address" : "{\"address\":\"\",\"city\":\"\",\"state\":\"\",\"zip\":\"\"}",
    "needs_recoding" : false,
    "longitude" : "-73.986703"
  },
  "state" : "NY",
  "time" : "17:00:10",
  "longitude" : "-73.986703"
}
, {
  "zip" : "11106",
  "date" : "2017-07-14T00:00:00",
  "entity_name" : "PARK WEST EXEC. SERVICES, INC.",
  "city" : "LIC",
  "type_of_base" : "LUXURY/LIMOUSINE",
  "latitude" : "40.754855",
  "telephone_number" : "2127277800",
  "shl_endorsed" : "No",
  "building" : "36-36",
  "license_number" : "B00227",
  "street" : "33 STREET  #308",
  "location" : {
    "latitude" : "40.754855",
    "human_address" : "{\"address\":\"\",\"city\":\"\",\"state\":\"\",\"zip\":\"\"}",
    "needs_recoding" : false,
    "longitude" : "-73.929205"
  },
  "state" : "NY",
  "time" : "17:00:10",
  "longitude" : "-73.929205"
}
, {
  "zip" : "11361",
  "date" : "2017-07-14T00:00:00",
  "entity_name" : "NYC FLY WHEELS INC.",
  "city" : "BAYSIDE",
  "type_of_base" : "LIVERY BASE",
  "latitude" : "40.759035",
  "telephone_number" : "7184231111",
  "shl_endorsed" : "No",
  "building" : "208-01",
  "license_number" : "B02832",
  "street" : "NORTHERN BOULEVARD",
  "location" : {
    "latitude" : "40.759035",
    "human_address" : "{\"address\":\"\",\"city\":\"\",\"state\":\"\",\"zip\":\"\"}",
    "needs_recoding" : false,
    "longitude" : "-73.775438"
  },
  "state" : "NY",
  "time" : "17:00:10",
  "longitude" : "-73.775438"
}
, {
  "zip" : "10310",
  "date" : "2017-07-14T00:00:00",
  "entity_name" : "MARIACHI CAR SERVICE INC",
  "city" : "STATEN ISLAND",
  "type_of_base" : "BLACK CAR BASE",
  "latitude" : "40.63375",
  "telephone_number" : "7186821603",
  "shl_endorsed" : "No",
  "building" : "1264 A",
  "license_number" : "B02856",
  "street" : "CASTLETON AVENUE",
  "location" : {
    "latitude" : "40.63375",
    "human_address" : "{\"address\":\"\",\"city\":\"\",\"state\":\"\",\"zip\":\"\"}",
    "needs_recoding" : false,
    "longitude" : "-74.12479"
  },
  "state" : "NY",
  "time" : "17:00:10",
  "longitude" : "-74.12479"
}
, {
  "zip" : "10462",
  "date" : "2017-07-14T00:00:00",
  "entity_name" : "V.I.T. CAR SERVICE, INC.",
  "city" : "BRONX",
  "type_of_base" : "LIVERY BASE",
  "latitude" : "40.837752",
  "telephone_number" : "7189048057",
  "shl_endorsed" : "Yes",
  "building" : "1478",
  "license_number" : "B01315",
  "street" : "WHITE PLAINS ROAD",
  "location" : {
    "latitude" : "40.837752",
    "human_address" : "{\"address\":\"\",\"city\":\"\",\"state\":\"\",\"zip\":\"\"}",
    "needs_recoding" : false,
    "longitude" : "-73.86334"
  },
  "state" : "NY",
  "time" : "17:00:10",
  "longitude" : "-73.86334"
}
, {
  "zip" : "10473",
  "date" : "2017-07-14T00:00:00",
  "entity_name" : "DAT TRANSPORTATION INC.",
  "city" : "BRONX",
  "type_of_base" : "BLACK CAR BASE",
  "latitude" : "40.818455",
  "telephone_number" : "7183288889",
  "shl_endorsed" : "No",
  "building" : "650",
  "license_number" : "B02913",
  "street" : "SOUNDVIEW AVENUE",
  "location" : {
    "latitude" : "40.818455",
    "human_address" : "{\"address\":\"\",\"city\":\"\",\"state\":\"\",\"zip\":\"\"}",
    "needs_recoding" : false,
    "longitude" : "-73.86271"
  },
  "state" : "NY",
  "time" : "17:00:10",
  "longitude" : "-73.86271"
}
, {
  "zip" : "11215",
  "date" : "2017-07-14T00:00:00",
  "entity_name" : "FAMILY CAR SERVICE",
  "city" : "BROOKLYN",
  "type_of_base" : "LIVERY BASE",
  "latitude" : "40.676416",
  "telephone_number" : "7185960677",
  "shl_endorsed" : "No",
  "building" : "274",
  "license_number" : "B00278",
  "street" : "4 AVENUE",
  "location" : {
    "latitude" : "40.676416",
    "human_address" : "{\"address\":\"\",\"city\":\"\",\"state\":\"\",\"zip\":\"\"}",
    "needs_recoding" : false,
    "longitude" : "-73.984273"
  },
  "state" : "NY",
  "time" : "17:00:10",
  "longitude" : "-73.984273"
}
, {
  "zip" : "11422",
  "date" : "2017-07-14T00:00:00",
  "entity_name" : "ALFRED HOLDINGS INC",
  "city" : "ROSEDALE",
  "type_of_base" : "LIVERY BASE",
  "latitude" : "40.673678",
  "telephone_number" : "7183419800",
  "shl_endorsed" : "No",
  "building" : "242-14",
  "license_number" : "B02748",
  "street" : "MERRICK BOULEVARD",
  "location" : {
    "latitude" : "40.673678",
    "human_address" : "{\"address\":\"\",\"city\":\"\",\"state\":\"\",\"zip\":\"\"}",
    "needs_recoding" : false,
    "longitude" : "-73.731189"
  },
  "state" : "NY",
  "time" : "17:00:10",
  "longitude" : "-73.731189"
}
, {
  "zip" : "11377",
  "date" : "2017-07-14T00:00:00",
  "entity_name" : "ELEGANT LUXURY LIMO LLC",
  "city" : "WOODSIDE",
  "type_of_base" : "LUXURY/LIMOUSINE",
  "latitude" : "40.76364",
  "telephone_number" : "6465107613",
  "shl_endorsed" : "No",
  "building" : "25-26",
  "license_number" : "B02966",
  "street" : "50 STREET  206A",
  "location" : {
    "latitude" : "40.76364",
    "human_address" : "{\"address\":\"\",\"city\":\"\",\"state\":\"\",\"zip\":\"\"}",
    "needs_recoding" : false,
    "longitude" : "-73.904205"
  },
  "state" : "NY",
  "time" : "17:00:10",
  "longitude" : "-73.904205"
}
, {
  "zip" : "11214",
  "date" : "2017-07-14T00:00:00",
  "entity_name" : "ASCONA CAR SERVICE INC.",
  "city" : "BROOKLYN",
  "type_of_base" : "LIVERY BASE",
  "latitude" : "40.595422",
  "telephone_number" : "7186461611",
  "shl_endorsed" : "No",
  "building" : "2421",
  "license_number" : "B02658",
  "street" : "BATH AVENUE",
  "location" : {
    "latitude" : "40.595422",
    "human_address" : "{\"address\":\"\",\"city\":\"\",\"state\":\"\",\"zip\":\"\"}",
    "needs_recoding" : false,
    "longitude" : "-73.992368"
  },
  "state" : "NY",
  "time" : "17:00:10",
  "longitude" : "-73.992368"
}
, {
  "zip" : "10467",
  "date" : "2017-07-14T00:00:00",
  "entity_name" : "STARLIGHT AMBULETTE",
  "city" : "BRONX",
  "type_of_base" : "PARATRANSIT BASE",
  "latitude" : "40.870406",
  "telephone_number" : "7185188056",
  "shl_endorsed" : "No",
  "building" : "3055",
  "license_number" : "B90523",
  "street" : "WEBSTER AVENUE",
  "location" : {
    "latitude" : "40.870406",
    "human_address" : "{\"address\":\"\",\"city\":\"\",\"state\":\"\",\"zip\":\"\"}",
    "needs_recoding" : false,
    "longitude" : "-73.879043"
  },
  "state" : "NY",
  "time" : "17:00:10",
  "longitude" : "-73.879043"
}
, {
  "zip" : "11358",
  "date" : "2017-07-14T00:00:00",
  "entity_name" : "MEDROCK CAR SERVICE INC.",
  "city" : "FLUSHING",
  "type_of_base" : "BLACK CAR BASE",
  "latitude" : "40.762492",
  "telephone_number" : "2016666669",
  "shl_endorsed" : "No",
  "building" : "162-10",
  "license_number" : "B02977",
  "street" : "CROCHERON AVENUE  #2 FLOOR",
  "location" : {
    "latitude" : "40.762492",
    "human_address" : "{\"address\":\"\",\"city\":\"\",\"state\":\"\",\"zip\":\"\"}",
    "needs_recoding" : false,
    "longitude" : "-73.803318"
  },
  "state" : "NY",
  "time" : "17:00:10",
  "longitude" : "-73.803318"
}
, {
  "zip" : "10455",
  "date" : "2017-07-14T00:00:00",
  "entity_name" : "AGAPE LUXURY CORP.",
  "city" : "BRONX",
  "type_of_base" : "BLACK CAR BASE",
  "latitude" : "40.812094",
  "telephone_number" : "9173090202",
  "shl_endorsed" : "No",
  "building" : "560",
  "license_number" : "B02550",
  "street" : "SOUTHERN BOULEVARD",
  "location" : {
    "latitude" : "40.812094",
    "human_address" : "{\"address\":\"\",\"city\":\"\",\"state\":\"\",\"zip\":\"\"}",
    "needs_recoding" : false,
    "longitude" : "-73.90301"
  },
  "state" : "NY",
  "time" : "17:00:10",
  "longitude" : "-73.90301"
}
, {
  "zip" : "11223",
  "date" : "2017-07-14T00:00:00",
  "entity_name" : "NINA'S TRANSPORTATION SERVICE INC.",
  "city" : "BROOKLYN",
  "type_of_base" : "PARATRANSIT BASE",
  "latitude" : "40.601735",
  "telephone_number" : "7183769747",
  "shl_endorsed" : "No",
  "building" : "293",
  "license_number" : "B90548",
  "street" : "AVENUE S",
  "location" : {
    "latitude" : "40.601735",
    "human_address" : "{\"address\":\"\",\"city\":\"\",\"state\":\"\",\"zip\":\"\"}",
    "needs_recoding" : false,
    "longitude" : "-73.97455"
  },