[ {
  "location_1" : {
    "latitude" : "40.5585718165536",
    "human_address" : "{\"address\":\"388 DOANE AVENUE\",\"city\":\"STATEN ISLAND\",\"state\":\"NY\",\"zip\":\"10308\"}",
    "needs_recoding" : false,
    "longitude" : "-74.15671510971399"
  },
  "mailing_office" : "388 DOANE AVENUE",
  "mstat" : "NY",
  "comp_phone" : "(718) 966-0351",
  "mail_city" : "STATEN ISLAND",
  "type" : "CL.1",
  "bus_name" : "3J'S LAWN MAINTENANCE & LANDSCAPING"
}
, {
  "location_1" : {
    "latitude" : "40.78628404147537",
    "human_address" : "{\"address\":\"23 02 FRANCIS LEWIS BLVD\",\"city\":\"WHITESTONE\",\"state\":\"NY\",\"zip\":\"11357\"}",
    "needs_recoding" : false,
    "longitude" : "-73.81123206101074"
  },
  "mailing_office" : "23-02 FRANCIS LEWIS BLVD.",
  "mstat" : "NY",
  "comp_phone" : "(718) 746-0580",
  "mail_city" : "WHITESTONE",
  "type" : "CL.1",
  "bus_name" : "A & S WHITESTONE NURSERY INC."
}
, {
  "location_1" : {
    "latitude" : "40.59649030298516",
    "human_address" : "{\"address\":\"140678 STATEN ISLAND\",\"city\":\"NY\",\"state\":\"\",\"zip\":\"10314\"}",
    "needs_recoding" : false,
    "longitude" : "-74.16599111879503"
  },
  "mailing_office" : "P.O. BOX 140678",
  "mstat" : "NY",
  "comp_phone" : "(718) 815-2484",
  "mail_city" : "STATEN ISLAND",
  "type" : "CL.1",
  "bus_name" : "A TO Z LANDSCAPING, INC"
}
, {
  "location_1" : {
    "latitude" : "40.613758508449116",
    "human_address" : "{\"address\":\"660 GULF AVENUE\",\"city\":\"STATEN ISLAND\",\"state\":\"NY\",\"zip\":\"10314\"}",
    "needs_recoding" : false,
    "longitude" : "-74.18019119443426"
  },
  "mailing_office" : "660 GULF AVENUE",
  "mstat" : "NY",
  "comp_phone" : "(718) 420-0901",
  "mail_city" : "STATEN ISLAND",
  "type" : "CL.1",
  "bus_name" : "A. BIANCO LANDSCAPING"
}
, {
  "location_1" : {
    "latitude" : "40.894203691683785",
    "human_address" : "{\"address\":\"820 FULTON AVE\",\"city\":\"MOUNT VERNON\",\"state\":\"NY\",\"zip\":\"10550\"}",
    "needs_recoding" : false,
    "longitude" : "-73.82299044274882"
  },
  "mailing_office" : "820 SOUTH FULTON AVE.",
  "mstat" : "NY",
  "comp_phone" : "(914) 699-2257",
  "mail_city" : "MOUNT VERNON",
  "type" : "CL.1",
  "bus_name" : "A. PALMIERI LANDSCAPING CO. INC"
}
, {
  "location_1" : {
    "latitude" : "40.760350968822195",
    "human_address" : "{\"address\":\"162 24 DEPOT ROAD\",\"city\":\"FLUSHING\",\"state\":\"NY\",\"zip\":\"11358\"}",
    "needs_recoding" : false,
    "longitude" : "-73.79632645819947"
  },
  "mailing_office" : "162-24 DEPOT ROAD",
  "mstat" : "NY",
  "comp_phone" : "(718) 762-2689",
  "mail_city" : "FLUSHING",
  "type" : "CL.1",
  "bus_name" : "AB GARDEN CENTER INC"
}
, {
  "location_1" : {
    "latitude" : "40.61668588607489",
    "human_address" : "{\"address\":\"126 SOLOMON AVE\",\"city\":\"INWOOD\",\"state\":\"NY\",\"zip\":\"11096\"}",
    "needs_recoding" : false,
    "longitude" : "-73.7512117393224"
  },
  "mailing_office" : "126 SOLOMON AVE",
  "mstat" : "NY",
  "comp_phone" : "(516) 371-1857",
  "mail_city" : "INWOOD",
  "type" : "CL.1",
  "bus_name" : "ABEL ULLOA D/B/A ABEL LANDSCAPING"
}
, {
  "location_1" : {
    "latitude" : "40.79110939365762",
    "human_address" : "{\"address\":\"283 ELLERY STREET\",\"city\":\"BENTWOOD\",\"state\":\"NY\",\"zip\":\"11717\"}",
    "needs_recoding" : false,
    "longitude" : "-73.25509174863879"
  },
  "mailing_office" : "283 ELLERY STREET",
  "mstat" : "NY",
  "comp_phone" : "(347) 515-0072",
  "mail_city" : "BENTWOOD",
  "type" : "CL.1",
  "bus_name" : "ABEL VENTURA"
}
, {
  "location_1" : {
    "latitude" : "40.66199800000777",
    "human_address" : "{\"address\":\"622 VALLEY STREAM\",\"city\":\"NY\",\"state\":\"\",\"zip\":\"11582\"}",
    "needs_recoding" : false,
    "longitude" : "-73.70272799999714"
  },
  "mailing_office" : "P.O. BOX 622",
  "mstat" : "NY",
  "comp_phone" : "(516) 791-6241",
  "mail_city" : "VALLEY STREAM",
  "type" : "CL.1",
  "bus_name" : "ACE LANDSCAPING SERVICES, INC."
}
, {
  "location_1" : {
    "latitude" : "40.58599237896547",
    "human_address" : "{\"address\":\"2641 6 STREET\",\"city\":\"BROOKLYN\",\"state\":\"NY\",\"zip\":\"11235\"}",
    "needs_recoding" : false,
    "longitude" : "-73.96365272147035"
  },
  "mailing_office" : "2641 EAST 6 STREET",
  "mstat" : "NY",
  "comp_phone" : "(718) 648-0226",
  "mail_city" : "BROOKLYN",
  "type" : "CL.1",
  "bus_name" : "ADAMS A&M CORP."
}
, {
  "location_1" : {
    "latitude" : "40.72816440726166",
    "human_address" : "{\"address\":\"78 37 160 STREET\",\"city\":\"FLUSHING\",\"state\":\"NY\",\"zip\":\"11366\"}",
    "needs_recoding" : false,
    "longitude" : "-73.79226817393703"
  },
  "mailing_office" : "78-37 160 STREET",
  "mstat" : "NY",
  "comp_phone" : "(718) 969-7624",
  "mail_city" : "FLUSHING",
  "type" : "CL.1",
  "bus_name" : "AHMED BOTI DBA M & B LANDSCAPING"
}
, {
  "location_1" : {
    "latitude" : "40.59649030298516",
    "human_address" : "{\"address\":\"140428 STATEN ISLAND\",\"city\":\"NY\",\"state\":\"\",\"zip\":\"10314\"}",
    "needs_recoding" : false,
    "longitude" : "-74.16599111879503"
  },
  "mailing_office" : "P.O. BOX 140428",
  "mstat" : "NY",
  "comp_phone" : "(718) 815-4094",
  "mail_city" : "STATEN ISLAND",
  "type" : "CL.1",
  "bus_name" : "AJ'S LANDSCAPING DESIGN CONTRACTING LLC"
}
, {
  "location_1" : {
    "latitude" : "40.614174833543636",
    "human_address" : "{\"address\":\"4208 FILLMORE AVENUE\",\"city\":\"BROOKLYN\",\"state\":\"NY\",\"zip\":\"11234\"}",
    "needs_recoding" : false,
    "longitude" : "-73.92880031714256"
  },
  "mailing_office" : "4208 FILLMORE AVENUE",
  "mstat" : "NY",
  "comp_phone" : "(718) 338-5131",
  "mail_city" : "BROOKLYN",
  "type" : "CL.1",
  "bus_name" : "AL PAOLUCCI LANDSCAPING LLC"
}
, {
  "location_1" : {
    "latitude" : "40.75038809217091",
    "human_address" : "{\"address\":\"288 DOW AVENUE\",\"city\":\"CARLE PL\",\"state\":\"NY\",\"zip\":\"11514\"}",
    "needs_recoding" : false,
    "longitude" : "-73.61868764508478"
  },
  "mailing_office" : "288 DOW AVENUE",
  "mstat" : "NY",
  "comp_phone" : "(516) 741-9870",
  "mail_city" : "CARLE PL",
  "type" : "CL.1",
  "bus_name" : "ALBERT SAVELLO"
}
, {
  "location_1" : {
    "latitude" : "40.921376189601744",
    "human_address" : "{\"address\":\"124 COLIGNI AVE\",\"city\":\"NEW ROCHELLE\",\"state\":\"NY\",\"zip\":\"10805\"}",
    "needs_recoding" : false,
    "longitude" : "-73.79309316622692"
  },
  "mailing_office" : "124 COLIGNI AVE.",
  "mstat" : "NY",
  "comp_phone" : "(914) 516-8734",
  "mail_city" : "NEW ROCHELLE",
  "type" : "CL.1",
  "bus_name" : "ALEJANDRO VALDOVINOS"
}
, {
  "location_1" : {
    "latitude" : "40.88245553014519",
    "human_address" : "{\"address\":\"2272 TILLOTSON AVE\",\"city\":\"BRONX\",\"state\":\"NY\",\"zip\":\"10475\"}",
    "needs_recoding" : false,
    "longitude" : "-73.82714905814782"
  },
  "mailing_office" : "2272 TILLOTSON AVE",
  "mstat" : "NY",
  "comp_phone" : "(718) 652-6100",
  "mail_city" : "BRONX",
  "type" : "CL.1",
  "bus_name" : "ALFA LANDSCAPING & CONTRACTING  INC."
}
, {
  "location_1" : {
    "latitude" : "40.70119264912154",
    "human_address" : "{\"address\":\"89 15 144 STREET\",\"city\":\"JAMAICA\",\"state\":\"NY\",\"zip\":\"11435\"}",
    "needs_recoding" : false,
    "longitude" : "-73.80979665579099"
  },
  "mailing_office" : "89-15 144 STREET APT 4C",
  "mstat" : "NY",
  "comp_phone" : "(347) 371-5938",
  "mail_city" : "JAMAICA",
  "type" : "CL.1",
  "bus_name" : "ALFREDO C GUERRA D/B/A RIO LEMPA LANDSCAPING"
}
, {
  "location_1" : {
    "latitude" : "40.64002870668866",
    "human_address" : "{\"address\":\"194 BARD AVENUE\",\"city\":\"STATEN ISLAND\",\"state\":\"NY\",\"zip\":\"10310\"}",
    "needs_recoding" : false,
    "longitude" : "-74.10769157185565"
  },
  "mailing_office" : "194 BARD AVENUE",
  "mstat" : "NY",
  "comp_phone" : "(718) 981-3956",
  "mail_city" : "STATEN ISLAND",
  "type" : "CL.1",
  "bus_name" : "ALL THINGS GREEN INC."
}
, {
  "location_1" : {
    "latitude" : "40.90526033883668",
    "human_address" : "{\"address\":\"58 BEECHWOOD AVENUE\",\"city\":\"NEW ROCHELLE\",\"state\":\"NY\",\"zip\":\"10801\"}",
    "needs_recoding" : false,
    "longitude" : "-73.79048513234193"
  },
  "mailing_office" : "58 BEECHWOOD AVENUE",
  "mstat" : "NY",
  "comp_phone" : "(914) 576-0193",
  "mail_city" : "NEW ROCHELLE",
  "type" : "CL.1",
  "bus_name" : "ALMSTEAD TREE & SHRUB CARE COMPANY, LLC"
}
, {
  "location_1" : {
    "latitude" : "40.63809684667197",
    "human_address" : "{\"address\":\"78 SHARPE AVENUE\",\"city\":\"STATEN ISLAND\",\"state\":\"NY\",\"zip\":\"10302\"}",
    "needs_recoding" : false,
    "longitude" : "-74.13709712578503"
  },
  "mailing_office" : "78 SHARPE AVENUE",
  "mstat" : "NY",
  "comp_phone" : "(718) 981-5205",
  "mail_city" : "STATEN ISLAND",
  "type" : "CL.1",
  "bus_name" : "ALVAREZ & SONS LANDSCAPING CORP."
}
, {
  "location_1" : {
    "latitude" : "40.659460261535315",
    "human_address" : "{\"address\":\"267 BALDWIN\",\"city\":\"NY\",\"state\":\"\",\"zip\":\"11510\"}",
    "needs_recoding" : false,
    "longitude" : "-73.61910192948297"
  },
  "mailing_office" : "P.O. BOX 267",
  "mstat" : "NY",
  "comp_phone" : "(516) 379-0816",
  "mail_city" : "BALDWIN",
  "type" : "CL.1",
  "bus_name" : "AMBIORIX GONZALEZ"
}
, {
  "location_1" : {
    "latitude" : "40.63318352190087",
    "human_address" : "{\"address\":\"316 HEBERTON AVE\",\"city\":\"STATEN ISLAND\",\"state\":\"NY\",\"zip\":\"10302\"}",
    "needs_recoding" : false,
    "longitude" : "-74.13382804515906"
  },
  "mailing_office" : "316 HEBERTON AVE",
  "mstat" : "NY",
  "comp_phone" : "(917) 733-8547",
  "mail_city" : "STATEN ISLAND",
  "type" : "CL.1",
  "bus_name" : "AMEX LANDSCAPING COMPANY"
}
, {
  "location_1" : {
    "latitude" : "40.921295250619096",
    "human_address" : "{\"address\":\"5 ORMONDE PLACE\",\"city\":\"NEW ROCHELLE\",\"state\":\"NY\",\"zip\":\"10801\"}",
    "needs_recoding" : false,
    "longitude" : "-73.80064747127301"
  },
  "mailing_office" : "5 ORMONDE PLACE",
  "mstat" : "NY",
  "comp_phone" : "(914) 654-9174",
  "mail_city" : "NEW ROCHELLE",
  "type" : "CL.1",
  "bus_name" : "ANDOLINA LANDSCAPING INC"
}
, {
  "location_1" : {
    "latitude" : "40.79659525803635",
    "human_address" : "{\"address\":\"32 B COLUMBUS AVE\",\"city\":\"BRENTWOOD\",\"state\":\"NY\",\"zip\":\"11717\"}",
    "needs_recoding" : false,
    "longitude" : "-73.23394868772994"
  },
  "mailing_office" : "32 B COLUMBUS AVE",
  "mstat" : "NY",
  "comp_phone" : "(917) 676-4563",
  "mail_city" : "BRENTWOOD",
  "type" : "CL.1",
  "bus_name" : "ANGEL A GUZMAN"
}
, {
  "location_1" : {
    "latitude" : "40.73704138495202",
    "human_address" : "{\"address\":\"71 08 252ND STREET\",\"city\":\"BELLEROSE\",\"state\":\"NY\",\"zip\":\"11426\"}",
    "needs_recoding" : false,
    "longitude" : "-73.72415699894628"
  },
  "mailing_office" : "71-08 252ND STREET, APT. 1",
  "mstat" : "NY",
  "comp_phone" : "(718) 887-6002",
  "mail_city" : "BELLEROSE",
  "type" : "CL.1",
  "bus_name" : "ANGELO SCICCHITANO"
}
, {
  "location_1" : {
    "latitude" : "40.710858555737644",
    "human_address" : "{\"address\":\"25 B HENDRICKS AVE\",\"city\":\"HEMPSTEAD\",\"state\":\"NY\",\"zip\":\"11550\"}",
    "needs_recoding" : false,
    "longitude" : "-73.6102765285788"
  },
  "mailing_office" : "25 B HENDRICKS AVE.",
  "mstat" : "NY",
  "comp_phone" : "(516) 489-5504",
  "mail_city" : "HEMPSTEAD",
  "type" : "CL.1",
  "bus_name" : "ANIBAL LANDSCAPING CORPORATION"
}
, {
  "location_1" : {
    "latitude" : "40.61663684187814",
    "human_address" : "{\"address\":\"2187 FLATBUSH AVENUE\",\"city\":\"BROOKLYN\",\"state\":\"NY\",\"zip\":\"11234\"}",
    "needs_recoding" : false,
    "longitude" : "-73.93023698524937"
  },
  "mailing_office" : "2187 FLATBUSH AVENUE",
  "mstat" : "NY",
  "comp_phone" : "(718) 377-1046",
  "mail_city" : "BROOKLYN",
  "type" : "CL.1",
  "bus_name" : "ANTHONY GALLO NURSERIES INC."
}
, {
  "location_1" : {
    "latitude" : "40.76862022064671",
    "human_address" : "{\"address\":\"35 30 153RD STREET\",\"city\":\"FLUSHING\",\"state\":\"NY\",\"zip\":\"11354\"}",
    "needs_recoding" : false,
    "longitude" : "-73.82719028070687"
  },
  "mailing_office" : "35-30 153RD STREET APT 4B",
  "mstat" : "NY",
  "comp_phone" : "(347) 403-5184",
  "mail_city" : "FLUSHING",
  "type" : "CL.1",
  "bus_name" : "ANTOLIN RAMIREZ"
}
, {
  "location_1" : {
    "latitude" : "41.062507034149924",
    "human_address" : "{\"address\":\"25 WHITEWOOD RD\",\"city\":\"WHITE PLAINS\",\"state\":\"NY\",\"zip\":\"10603\"}",
    "needs_recoding" : false,
    "longitude" : "-73.79796289560704"
  },
  "mailing_office" : "25 WHITEWOOD RD.",
  "mstat" : "NY",
  "comp_phone" : "(914) 592-0192",
  "mail_city" : "WHITE PLAINS",
  "type" : "CL.1",
  "bus_name" : "ANTONINO D'AMORE"
}
, {
  "location_1" : {
    "latitude" : "40.70119264912154",
    "human_address" : "{\"address\":\"138 32 90TH AVENUE\",\"city\":\"JAMAICA\",\"state\":\"NY\",\"zip\":\"11435\"}",
    "needs_recoding" : false,
    "longitude" : "-73.80979665579099"
  },
  "mailing_office" : "138-32 90TH AVENUE, SUITE B8",
  "mstat" : "NY",
  "comp_phone" : "(516) 425-8765",
  "mail_city" : "JAMAICA",
  "type" : "CL.1",
  "bus_name" : "ARMANDO ALVARENGA"
}
, {
  "location_1" : {
    "latitude" : "40.78628404147537",
    "human_address" : "{\"address\":\"12 48 150TH STREET\",\"city\":\"WHITESTONE\",\"state\":\"NY\",\"zip\":\"11357\"}",
    "needs_recoding" : false,
    "longitude" : "-73.81123206101074"
  },
  "mailing_office" : "12-48 150TH STREET SUITE 104",
  "mstat" : "NY",
  "comp_phone" : "(516) 354-8212",
  "mail_city" : "WHITESTONE",
  "type" : "CL.1",
  "bus_name" : "ASPEN LANDSCAPING INC."
}
, {
  "location_1" : {
    "latitude" : "40.61554374709766",
    "human_address" : "{\"address\":\"148 SHERIDAN BLVD\",\"city\":\"INWOOD\",\"state\":\"NY\",\"zip\":\"11096\"}",
    "needs_recoding" : false,
    "longitude" : "-73.75229092575756"
  },
  "mailing_office" : "148 SHERIDAN BLVD",
  "mstat" : "NY",
  "comp_phone" : "(516) 239-2019",
  "mail_city" : "INWOOD",
  "type" : "CL.1",
  "bus_name" : "ATALA C LANDSCAPING INC"
}
, {
  "location_1" : {
    "latitude" : "40.62770062674284",
    "human_address" : "{\"address\":\"35 RONALD AVE\",\"city\":\"STATEN ISLAND\",\"state\":\"NY\",\"zip\":\"10303\"}",
    "needs_recoding" : false,
    "longitude" : "-74.14929351983017"
  },
  "mailing_office" : "35 RONALD AVE",
  "mstat" : "NY",
  "comp_phone" : "(917) 916-7540",
  "mail_city" : "STATEN ISLAND",
  "type" : "CL.1",
  "bus_name" : "AUBREY D GRANT"
}
, {
  "location_1" : {
    "latitude" : "40.663711434986965",
    "human_address" : "{\"address\":\"65 WEBERFIELD AVENUE\",\"city\":\"FREEPORT\",\"state\":\"NY\",\"zip\":\"11520\"}",
    "needs_recoding" : false,
    "longitude" : "-73.57261537752373"
  },
  "mailing_office" : "65 WEBERFIELD AVENUE",
  "mstat" : "NY",
  "comp_phone" : "(718) 877-3956",
  "mail_city" : "FREEPORT",
  "type" : "CL.1",
  "bus_name" : "AUDELIO D. CALERO"
}
, {
  "location_1" : {
    "latitude" : "40.63461970337126",
    "human_address" : "{\"address\":\"286 PORT RICHMOND AVE\",\"city\":\"STATEN ISLAND\",\"state\":\"NY\",\"zip\":\"10302\"}",
    "needs_recoding" : false,
    "longitude" : "-74.13570840868684"
  },
  "mailing_office" : "286 PORT RICHMOND AVE",
  "mstat" : "NY",
  "comp_phone" : "(347) 236-5144",
  "mail_city" : "STATEN ISLAND",
  "type" : "CL.1",
  "bus_name" : "AURELIE LALGEE"
}
, {
  "location_1" : {
    "latitude" : "40.627494285983495",
    "human_address" : "{\"address\":\"1138 66 ST\",\"city\":\"BROOKLYN\",\"state\":\"NY\",\"zip\":\"11219\"}",
    "needs_recoding" : false,
    "longitude" : "-74.00570602926445"
  },
  "mailing_office" : "1138-66 ST.",
  "mstat" : "NY",
  "comp_phone" : "(718) 236-1316",
  "mail_city" : "BROOKLYN",
  "type" : "CL.1",
  "bus_name" : "BART VARVARA LANDSCAPING & GARDENING LLC."
}
, {
  "location_1" : {
    "latitude" : "40.760350968822195",
    "human_address" : "{\"address\":\"191 10 CROCHERON AVENUE\",\"city\":\"FLUSHING\",\"state\":\"NY\",\"zip\":\"11358\"}",
    "needs_recoding" : false,
    "longitude" : "-73.79632645819947"
  },
  "mailing_office" : "191-10 CROCHERON AVENUE",
  "mstat" : "NY",
  "comp_phone" : "(646) 431-4745",
  "mail_city" : "FLUSHING",
  "type" : "CL.1",
  "bus_name" : "BARTOLOME AREVALO"
}
, {
  "location_1" : {
    "latitude" : "40.61218590593577",
    "human_address" : "{\"address\":\"167 AUBURN AVENUE\",\"city\":\"STATEN ISLAND\",\"state\":\"NY\",\"zip\":\"10314\"}",
    "needs_recoding" : false,
    "longitude" : "-74.14728476702179"
  },
  "mailing_office" : "167 AUBURN AVENUE",
  "mstat" : "NY",
  "comp_phone" : "(718) 354-7393",
  "mail_city" : "STATEN ISLAND",
  "type" : "CL.1",
  "bus_name" : "BAY RIDGE LANDSCAPING INC."
}
, {
  "location_1" : {
    "latitude" : "40.59353347842298",
    "human_address" : "{\"address\":\"215 LAMPORT BLVD\",\"city\":\"STATEN ISLAND\",\"state\":\"NY\",\"zip\":\"10305\"}",
    "needs_recoding" : false,
    "longitude" : "-74.07647803907831"
  },
  "mailing_office" : "215 LAMPORT BLVD",
  "mstat" : "NY",
  "comp_phone" : "(718) 833-6566",
  "mail_city" : "STATEN ISLAND",
  "type" : "CL.1",
  "bus_name" : "BELCASTRO LTD"
}
, {
  "location_1" : {
    "latitude" : "40.632554615546894",
    "human_address" : "{\"address\":\"49 RANDALL AVENUE\",\"city\":\"STATEN ISLAND\",\"state\":\"NY\",\"zip\":\"10301\"}",
    "needs_recoding" : false,
    "longitude" : "-74.09903458029277"
  },
  "mailing_office" : "49 RANDALL AVENUE",
  "mstat" : "NY",
  "comp_phone" : "(718) 447-6806",
  "mail_city" : "STATEN ISLAND",
  "type" : "CL.1",
  "bus_name" : "BELLOTTI LANDSCAPING INC."
}
, {
  "location_1" : {
    "latitude" : "40.755613153161164",
    "human_address" : "{\"address\":\"29 LINDEN BLVD\",\"city\":\"HICKSVILLE\",\"state\":\"NY\",\"zip\":\"11801\"}",
    "needs_recoding" : false,
    "longitude" : "-73.51192912698656"
  },
  "mailing_office" : "29 LINDEN BLVD.",
  "mstat" : "NY",
  "comp_phone" : "(917) 881-9880",
  "mail_city" : "HICKSVILLE",
  "type" : "CL.1",
  "bus_name" : "BEST LANDSCAPING AND CONSTRUCTION INC."
}
, {
  "location_1" : {
    "latitude" : "40.77663030898589",
    "human_address" : "{\"address\":\"24 WENTWORTH DRIVE\",\"city\":\"DIX HILLS\",\"state\":\"NY\",\"zip\":\"11746\"}",
    "needs_recoding" : false,
    "longitude" : "-73.33934023634362"
  },
  "mailing_office" : "24 WENTWORTH DRIVE",
  "mstat" : "NY",
  "comp_phone" : "(631) 667-3416",
  "mail_city" : "DIX HILLS",
  "type" : "CL.1",
  "bus_name" : "BILL TSUGRANES"
}
, {
  "location_1" : {
    "latitude" : "40.65817022817356",
    "human_address" : "{\"address\":\"161 05 96TH STREET\",\"city\":\"HOWARD BEACH\",\"state\":\"NY\",\"zip\":\"11414\"}",
    "needs_recoding" : false,
    "longitude" : "-73.84496263981396"
  },
  "mailing_office" : "161-05 96TH STREET",
  "mstat" : "NY",
  "comp_phone" : "(718) 848-8682",
  "mail_city" : "HOWARD BEACH",
  "type" : "CL.1",
  "bus_name" : "BLUE SKY LANDSCAPING SERVICES INC"
}
, {
  "location_1" : {
    "latitude" : "40.702319329704835",
    "human_address" : "{\"address\":\"327 51ST STREET\",\"city\":\"LINDENHURST\",\"state\":\"NY\",\"zip\":\"11757\"}",
    "needs_recoding" : false,
    "longitude" : "-73.38899180558127"
  },
  "mailing_office" : "327 51ST STREET",
  "mstat" : "NY",
  "comp_phone" : "(631) 956-1601",
  "mail_city" : "LINDENHURST",
  "type" : "CL.1",
  "bus_name" : "BRYAN SCHILLING D.B.A. BRYAN SCHILLING LANDSCAPING"
}
, {
  "location_1" : {
    "latitude" : "40.759471244666884",
    "human_address" : "{\"address\":\"27 CHURCHILL DR\",\"city\":\"BRENTWOOD\",\"state\":\"NY\",\"zip\":\"11717\"}",
    "needs_recoding" : false,
    "longitude" : "-73.23496492162303"
  },
  "mailing_office" : "27 CHURCHILL DR",
  "mstat" : "NY",
  "comp_phone" : "(631) 647-4789",
  "mail_city" : "BRENTWOOD",
  "type" : "CL.1",
  "bus_name" : "C & A LANDSCAPING"
}
, {
  "location_1" : {
    "latitude" : "40.59657129107103",
    "human_address" : "{\"address\":\"427 BEACH 35TH ST\",\"city\":\"FAR ROCKAWAY\",\"state\":\"NY\",\"zip\":\"11691\"}",
    "needs_recoding" : false,
    "longitude" : "-73.76780757963621"
  },
  "mailing_office" : "427 BEACH 35TH ST",
  "mstat" : "NY",
  "comp_phone" : "(718) 337-6440",
  "mail_city" : "FAR ROCKAWAY",
  "type" : "CL.1",
  "bus_name" : "CABRERA LANDSCAPING"
}
, {
  "location_1" : {
    "latitude" : "40.59338123138988",
    "human_address" : "{\"address\":\"4005 VICTORY BLVD\",\"city\":\"STATEN ISLAND\",\"state\":\"NY\",\"zip\":\"10314\"}",
    "needs_recoding" : false,
    "longitude" : "-74.18785841534675"
  },
  "mailing_office" : "4005 VICTORY BLVD",
  "mstat" : "NY",
  "comp_phone" : "(718) 494-1297",
  "mail_city" : "STATEN ISLAND",
  "type" : "CL.1",
  "bus_name" : "CAPRI DESIGN GROUP LLC"
}
, {
  "location_1" : {
    "latitude" : "40.20583825553115",
    "human_address" : "{\"address\":\"177 ANDERSON STREET\",\"city\":\"TRENTON\",\"state\":\"NY\",\"zip\":\"08611\"}",
    "needs_recoding" : false,
    "longitude" : "-74.75779974975859"
  },
  "mailing_office" : "177 ANDERSON STREET",
  "mstat" : "NY",
  "comp_phone" : "(718) 551-7961",
  "mail_city" : "TRENTON",
  "type" : "CL.1",
  "bus_name" : "CAREY SMITH"
}
, {
  "location_1" : {
    "latitude" : "40.621470279270795",
    "human_address" : "{\"address\":\"249 ROCKAWAY TPKE\",\"city\":\"LAWRENCE\",\"state\":\"NY\",\"zip\":\"11559\"}",
    "needs_recoding" : false,
    "longitude" : "-73.73356704110756"
  },
  "mailing_office" : "249 ROCKAWAY TPKE",
  "mstat" : "NY",
  "comp_phone" : "(516) 371-0163",
  "mail_city" : "LAWRENCE",
  "type" : "CL.1",
  "bus_name" : "CARLOS HUMBERTO MEJIA"
}
, {
  "location_1" : {
    "latitude" : "40.6763637308016",
    "human_address" : "{\"address\":\"96 36 149TH AVENUE\",\"city\":\"OZONE PARK\",\"state\":\"NY\",\"zip\":\"11417\"}",
    "needs_recoding" : false,
    "longitude" : "-73.84454275534387"
  },
  "mailing_office" : "96-36 149TH AVENUE",
  "mstat" : "NY",
  "comp_phone" : "(718) 738-2707",
  "mail_city" : "OZONE PARK",
  "type" : "CL.1",
  "bus_name" : "CARMINE LANDSCAPING INC"
}
, {
  "location_1" : {
    "latitude" : "40.75823018026642",
    "human_address" : "{\"address\":\"342 IVY AVENUE\",\"city\":\"WESTBURY\",\"state\":\"NY\",\"zip\":\"11590\"}",
    "needs_recoding" : false,
    "longitude" : "-73.59695103163659"
  },
  "mailing_office" : "342 IVY AVENUE",
  "mstat" : "NY",
  "comp_phone" : "(516) 640-5586",
  "mail_city" : "WESTBURY",
  "type" : "CL.1",
  "bus_name" : "CLEARVIEW TREE AND LAND CORP."
}
, {
  "location_1" : {
    "latitude" : "40.720467709397866",
    "human_address" : "{\"address\":\"267 FLORAL PARK\",\"city\":\"NY\",\"state\":\"\",\"zip\":\"11001\"}",
    "needs_recoding" : false,
    "longitude" : "-73.71909551452886"
  },
  "mailing_office" : "P.O. BOX 267",
  "mstat" : "NY",
  "comp_phone" : "(516) 775-0413",
  "mail_city" : "FLORAL PARK",
  "type" : "CL.1",
  "bus_name" : "CON-KEL LANDSCAPING , INC"
}
, {
  "location_1" : {
    "latitude" : "40.617792052170955",
    "human_address" : "{\"address\":\"230 ELM RD\",\"city\":\"INWOOD\",\"state\":\"NY\",\"zip\":\"11096\"}",
    "needs_recoding" : false,
    "longitude" : "-73.753684874903"
  },
  "mailing_office" : "230 ELM RD.",
  "mstat" : "NY",
  "comp_phone" : "(516) 371-6011",
  "mail_city" : "INWOOD",
  "type" : "CL.1",
  "bus_name" : "CRISTIAN R. RIVERO"
}
, {
  "location_1" : {
    "latitude" : "40.85176686924412",
    "human_address" : "{\"address\":\"94 SEA CLIFF AVE\",\"city\":\"GLEN COVE\",\"state\":\"NY\",\"zip\":\"11542\"}",
    "needs_recoding" : false,
    "longitude" : "-73.62386493522337"
  },
  "mailing_office" : "94 SEA CLIFF AVE.",
  "mstat" : "NY",
  "comp_phone" : "(347) 387-5742",
  "mail_city" : "GLEN COVE",
  "type" : "CL.1",
  "bus_name" : "CRISTOBAL DELGADO"
}
, {
  "location_1" : {
    "latitude" : "40.554634227312505",
    "human_address" : "{\"address\":\"59 POMPEY AVENUE\",\"city\":\"STATEN ISLAND\",\"state\":\"NY\",\"zip\":\"10312\"}",
    "needs_recoding" : false,
    "longitude" : "-74.17309342723973"
  },
  "mailing_office" : "59 POMPEY AVENUE",
  "mstat" : "NY",
  "comp_phone" : "(718) 216-3032",
  "mail_city" : "STATEN ISLAND",
  "type" : "CL.1",
  "bus_name" : "CUT RIGHT LANDSCAPING & CONSTRUCTION INC."
}
, {
  "location_1" : {
    "latitude" : "40.83772426336412",
    "human_address" : "{\"address\":\"506 BRONX\",\"city\":\"NY\",\"state\":\"\",\"zip\":\"10452\"}",
    "needs_recoding" : false,
    "longitude" : "-73.9233322114124"
  },
  "mailing_office" : "P.O. BOX 506",
  "mstat" : "NY",
  "mail_city" : "BRONX",
  "type" : "CL.1",
  "bus_name" : "D' THE ROSE LANDSCAPING"
}
, {
  "location_1" : {
    "latitude" : "40.80554351222787",
    "human_address" : "{\"address\":\"15 WYNDHAM LANE\",\"city\":\"HOLBROOK\",\"state\":\"NY\",\"zip\":\"11741\"}",
    "needs_recoding" : false,
    "longitude" : "-73.06671076316132"
  },
  "mailing_office" : "15 WYNDHAM LANE",
  "mstat" : "NY",
  "comp_phone" : "(917) 468-3345",
  "mail_city" : "HOLBROOK",
  "type" : "CL.1",
  "bus_name" : "DAHILL LANDSCAPING & DESIGN CORP."
}
, {
  "location_1" : {
    "latitude" : "40.545048890011905",
    "human_address" : "{\"address\":\"234 CLEVELAND AVENUE\",\"city\":\"STATEN ISLAND\",\"state\":\"NY\",\"zip\":\"10308\"}",
    "needs_recoding" : false,
    "longitude" : "-74.14613536367465"
  },
  "mailing_office" : "234 CLEVELAND AVENUE",
  "mstat" : "NY",
  "comp_phone" : "(718) 948-7632",
  "mail_city" : "STATEN ISLAND",
  "type" : "CL.1",
  "bus_name" : "DANIEL BIVONA"
}
, {
  "location_1" : {
    "latitude" : "40.68457809700163",
    "human_address" : "{\"address\":\"97 23 107TH STREET\",\"city\":\"OZONE PARK\",\"state\":\"NY\",\"zip\":\"11416\"}",
    "needs_recoding" : false,
    "longitude" : "-73.8496016684822"
  },
  "mailing_office" : "97-23 107TH STREET",
  "mstat" : "NY",
  "comp_phone" : "(516) 315-2117",
  "mail_city" : "OZONE PARK",
  "type" : "CL.1",
  "bus_name" : "DANIEL MOLINA"
}
, {
  "location_1" : {
    "latitude" : "40.6763637308016",
    "human_address" : "{\"address\":\"94 28 133RD AVE\",\"city\":\"OOZONE PARK\",\"state\":\"NY\",\"zip\":\"11417\"}",
    "needs_recoding" : false,
    "longitude" : "-73.84454275534387"
  },
  "mailing_office" : "94-28 133RD AVE",
  "mstat" : "NY",
  "comp_phone" : "(718) 641-8936",
  "mail_city" : "OOZONE PARK",
  "type" : "CL.1",
  "bus_name" : "DAVID KERR D/B/A DAVE'S LANDSCAPING"
}
, {
  "location_1" : {
    "latitude" : "40.61539086235268",
    "human_address" : "{\"address\":\"102 ROGER AVENUE\",\"city\":\"INWOOD\",\"state\":\"NY\",\"zip\":\"11096\"}",
    "needs_recoding" : false,
    "longitude" : "-73.75464714947435"
  },
  "mailing_office" : "102 ROGER AVENUE",
  "mstat" : "NY",
  "comp_phone" : "(516) 724-3875",
  "mail_city" : "INWOOD",
  "type" : "CL.1",
  "bus_name" : "DENNIS E. MARTINEZ-ALVARENGA"
}
, {
  "location_1" : {
    "latitude" : "40.61258120231714",
    "human_address" : "{\"address\":\"433 SKYLINE DRIVE\",\"city\":\"STATEN ISLAND\",\"state\":\"NY\",\"zip\":\"10304\"}",
    "needs_recoding" : false,
    "longitude" : "-74.08145482951542"
  },
  "mailing_office" : "433 SKYLINE DRIVE",
  "mstat" : "NY",
  "comp_phone" : "(347) 327-2416",
  "mail_city" : "STATEN ISLAND",
  "type" : "CL.1",
  "bus_name" : "DNJ LANDSCAPING, INC."
}
, {
  "location_1" : {
    "latitude" : "40.557401574546006",
    "human_address" : "{\"address\":\"5 TUDOR STREET\",\"city\":\"STATEN ISLAND\",\"state\":\"NY\",\"zip\":\"10308\"}",
    "needs_recoding" : false,
    "longitude" : "-74.14563819345403"
  },
  "mailing_office" : "5 TUDOR STREET",
  "mstat" : "NY",
  "comp_phone" : "(718) 966-9490",
  "mail_city" : "STATEN ISLAND",
  "type" : "CL.1",
  "bus_name" : "DONALD FRANCOMANO"
}
, {
  "location_1" : {
    "latitude" : "40.75935377085989",
    "human_address" : "{\"address\":\"71 01 ASTORIA BLVD\",\"city\":\"EAST ELMHURST\",\"state\":\"NY\",\"zip\":\"11370\"}",
    "needs_recoding" : false,
    "longitude" : "-73.89184400040028"
  },
  "mailing_office" : "71-01 ASTORIA BLVD.",
  "mstat" : "NY",
  "comp_phone" : "(718) 278-0515",
  "mail_city" : "EAST ELMHURST",
  "type" : "CL.1",
  "bus_name" : "DONHAUSER LAND SERVICES INC."
}
, {
  "location_1" : {
    "latitude" : "40.43392566328055",
    "human_address" : "{\"address\":\"18 LAKE AVENUE\",\"city\":\"HAZLET\",\"state\":\"NJ\",\"zip\":\"07730\"}",
    "needs_recoding" : false,
    "longitude" : "-74.16760683210862"
  },
  "mailing_office" : "18 LAKE AVENUE",
  "mstat" : "NJ",
  "comp_phone" : "(732) 888-8265",
  "mail_city" : "HAZLET",
  "type" : "CL.1",
  "bus_name" : "DORATO LANDSCAPING CORP."
}
, {
  "location_1" : {
    "latitude" : "40.7512997969481",
    "human_address" : "{\"address\":\"147 15 NORTHERN BLVD\",\"city\":\"FLUSHING\",\"state\":\"NY\",\"zip\":\"11355\"}",
    "needs_recoding" : false,
    "longitude" : "-73.82147854789662"
  },
  "mailing_office" : "147-15 NORTHERN BLVD. 3P",
  "mstat" : "NY",
  "comp_phone" : "(917) 284-7923",
  "mail_city" : "FLUSHING",
  "type" : "CL.1",
  "bus_name" : "DOUGLAS RAMOS"
}
, {
  "location_1" : {
    "latitude" : "40.65631887625785",
    "human_address" : "{\"address\":\"129 LOUISIANA AVENUE\",\"city\":\"BROOKLYN\",\"state\":\"NY\",\"zip\":\"11207\"}",
    "needs_recoding" : false,
    "longitude" : "-73.89430728842342"
  },
  "mailing_office" : "129 LOUISIANA AVENUE",
  "mstat" : "NY",
  "comp_phone" : "(718) 451-1300",
  "mail_city" : "BROOKLYN",
  "type" : "CL.1",
  "bus_name" : "DRAGONETTI BROTHERS LANDSCAPE NURSERY & FLORIST INC."
}
, {
  "location_1" : {
    "latitude" : "40.6957272992301",
    "human_address" : "{\"address\":\"718 NORTHERN PKWY\",\"city\":\"UNIONDALE\",\"state\":\"NY\",\"zip\":\"11553\"}",
    "needs_recoding" : false,
    "longitude" : "-73.59193281471306"
  },
  "mailing_office" : "718 NORTHERN PKWY",
  "mstat" : "NY",
  "comp_phone" : "(516) 596-7812",
  "mail_city" : "UNIONDALE",
  "type" : "CL.1",
  "bus_name" : "DUQUE LANDSCAPING AND MASONRY"
}
, {
  "location_1" : {
    "latitude" : "40.620157269108006",
    "human_address" : "{\"address\":\"252 PACIFIC AVE\",\"city\":\"LAWRENCE\",\"state\":\"NY\",\"zip\":\"11559\"}",
    "needs_recoding" : false,
    "longitude" : "-73.73509588855734"
  },
  "mailing_office" : "252 PACIFIC AVE",
  "mstat" : "NY",
  "comp_phone" : "(516) 371-3440",
  "mail_city" : "LAWRENCE",
  "type" : "CL.1",
  "bus_name" : "E.C. LANDSCAPE, LLC"
}
, {
  "location_1" : {
    "latitude" : "40.61958612160231",
    "human_address" : "{\"address\":\"960403 INWOOD\",\"city\":\"NY\",\"state\":\"\",\"zip\":\"11096\"}",
    "needs_recoding" : false,
    "longitude" : "-73.75090594735155"
  },
  "mailing_office" : "PO BOX 960403",
  "mstat" : "NY",
  "comp_phone" : "(516) 668-4481",
  "mail_city" : "INWOOD",
  "type" : "CL.1",
  "bus_name" : "EDGAR APARICIO"
}
, {
  "location_1" : {
    "latitude" : "40.7177786753885",
    "human_address" : "{\"address\":\"59 CUNNINGHAM AVE\",\"city\":\"UNIONDALE\",\"state\":\"NY\",\"zip\":\"11553\"}",
    "needs_recoding" : false,
    "longitude" : "-73.5889290791352"
  },
  "mailing_office" : "59 CUNNINGHAM AVE.",
  "mstat" : "NY",
  "comp_phone" : "(516) 996-5494",
  "mail_city" : "UNIONDALE",
  "type" : "CL.1",
  "bus_name" : "EDGARDO UMANZOR"
}
, {
  "location_1" : {
    "latitude" : "40.61991445216006",
    "human_address" : "{\"address\":\"22 PROVANZANO ST\",\"city\":\"INWOOD\",\"state\":\"NY\",\"zip\":\"11096\"}",
    "needs_recoding" : false,
    "longitude" : "-73.74229945801204"
  },
  "mailing_office" : "22 PROVANZANO ST",
  "mstat" : "NY",
  "comp_phone" : "(347) 782-7777",
  "mail_city" : "INWOOD",
  "type" : "CL.1",
  "bus_name" : "EDGAR'S LANDSCAPING"
}
, {
  "location_1" : {
    "latitude" : "40.70914701331356",
    "human_address" : "{\"address\":\"8907 169TH STREET\",\"city\":\"JAMAICA\",\"state\":\"NY\",\"zip\":\"11432\"}",
    "needs_recoding" : false,
    "longitude" : "-73.79209062251664"
  },
  "mailing_office" : "8907 169TH STREET APT. 1H",
  "mstat" : "NY",
  "comp_phone" : "(718) 725-0878",
  "mail_city" : "JAMAICA",
  "type" : "CL.1",
  "bus_name" : "EFRAIN PEREZ FUENTES D.B.A. FUENTES LANDSCAPING"
}
, {
  "location_1" : {
    "latitude" : "40.76418884813688",
    "human_address" : "{\"address\":\"45 65 OCEANIA STREET\",\"city\":\"BAYSIDE\",\"state\":\"NY\",\"zip\":\"11361\"}",
    "needs_recoding" : false,
    "longitude" : "-73.77232552860022"
  },
  "mailing_office" : "45-65 OCEANIA STREET",
  "mstat" : "NY",
  "comp_phone" : "(718) 229-1506",
  "mail_city" : "BAYSIDE",
  "type" : "CL.1",
  "bus_name" : "EGER LANDSCAPING INC."
}
, {
  "location_1" : {
    "latitude" : "40.61890751647187",
    "human_address" : "{\"address\":\"260 DOUGHTY BOULEVARD\",\"city\":\"INWOOD\",\"state\":\"NY\",\"zip\":\"11096\"}",
    "needs_recoding" : false,
    "longitude" : "-73.74653459393733"
  },
  "mailing_office" : "260 DOUGHTY BOULEVARD",
  "mstat" : "NY",
  "comp_phone" : "(877) 591-5296",
  "mail_city" : "INWOOD",
  "type" : "CL.1",
  "bus_name" : "ELEGANT LAWNS & LANDSCAPING INC."
}
, {
  "location_1" : {
    "latitude" : "41.43619308527451",
    "human_address" : "{\"address\":\"16 CANTERBURY AVENUE\",\"city\":\"CORNWALL\",\"state\":\"NY\",\"zip\":\"12518\"}",
    "needs_recoding" : false,
    "longitude" : "-74.04059558191057"
  },
  "mailing_office" : "16 CANTERBURY AVENUE",
  "mstat" : "NY",
  "comp_phone" : "(914) 377-9039",
  "mail_city" : "CORNWALL",
  "type" : "CL.1",
  "bus_name" : "EMIL YEDOWITZ LANDSCAPING CORP."
}
, {
  "location_1" : {
    "latitude" : "40.600614338480966",
    "human_address" : "{\"address\":\"892 FAR\",\"city\":\"ROCKAWAY\",\"state\":\"NY\",\"zip\":\"11691\"}",
    "needs_recoding" : false,
    "longitude" : "-73.76256777468302"
  },
  "mailing_office" : "P.O. BOX 892",
  "mstat" : "NY",
  "comp_phone" : "(917) 723-6499",
  "mail_city" : "FAR ROCKAWAY",
  "type" : "CL.1",
  "bus_name" : "EMILIO FERRUFINO LANDSCAPING"
}
, {
  "location_1" : {
    "latitude" : "40.62123723926589",
    "human_address" : "{\"address\":\"59 PEARL STREET\",\"city\":\"INWOOD\",\"state\":\"NY\",\"zip\":\"11096\"}",
    "needs_recoding" : false,
    "longitude" : "-73.73881021005472"
  },
  "mailing_office" : "59 PEARL STREET",
  "mstat" : "NY",
  "comp_phone" : "(516) 239-4599",
  "mail_city" : "INWOOD",
  "type" : "CL.1",
  "bus_name" : "ENRIQUE TURCIOS"
}
, {
  "location_1" : {
    "latitude" : "40.622495506384155",
    "human_address" : "{\"address\":\"3 FAIRWAY DRIVE\",\"city\":\"INWOOD\",\"state\":\"NY\",\"zip\":\"11096\"}",
    "needs_recoding" : false,
    "longitude" : "-73.74979980373644"
  },
  "mailing_office" : "3 FAIRWAY DRIVE",
  "mstat" : "NY",
  "comp_phone" : "(718) 327-1544",
  "mail_city" : "INWOOD",
  "type" : "CL.1",
  "bus_name" : "ERNESTO ALVARADO LANDSCAPING"
}
, {
  "location_1" : {
    "latitude" : "40.68249827217909",
    "human_address" : "{\"address\":\"2 WILTON ROAD\",\"city\":\"VALLEY STREAM\",\"state\":\"NY\",\"zip\":\"11580\"}",
    "needs_recoding" : false,
    "longitude" : "-73.71010372936308"
  },
  "mailing_office" : "2 WILTON ROAD",
  "mstat" : "NY",
  "comp_phone" : "(718) 723-5597",
  "mail_city" : "VALLEY STREAM",
  "type" : "CL.1",
  "bus_name" : "ETON LANDSCAPING SERVICE"
}
, {
  "location_1" : {
    "latitude" : "40.73704138495202",
    "human_address" : "{\"address\":\"247 24 88 ROAD\",\"city\":\"BELLEROSE\",\"state\":\"NY\",\"zip\":\"11426\"}",
    "needs_recoding" : false,
    "longitude" : "-73.72415699894628"
  },
  "mailing_office" : "247-24 88 ROAD",
  "mstat" : "NY",
  "comp_phone" : "(718) 343-2564",
  "mail_city" : "BELLEROSE",
  "type" : "CL.1",
  "bus_name" : "EURO CONCRETE AND CONSTRUCTION INC"
}
, {
  "location_1" : {
    "latitude" : "40.69212888200956",
    "human_address" : "{\"address\":\"122 ASHLAND PLACE\",\"city\":\"BROOKLYN\",\"state\":\"NY\",\"zip\":\"11201\"}",
    "needs_recoding" : false,
    "longitude" : "-73.97905451229555"
  },
  "mailing_office" : "122 ASHLAND PLACE APT 8H",
  "mstat" : "NY",
  "comp_phone" : "(888) 727-3235",
  "mail_city" : "BROOKLYN",
  "type" : "CL.1",
  "bus_name" : "EVERGREEN TREES AND SHRUBS CORP"
}
, {
  "location_1" : {
    "latitude" : "40.70991312049415",
    "human_address" : "{\"address\":\"209 29\",\"city\":\"QUEENS VILLAGE\",\"state\":\"NY\",\"zip\":\"11429\"}",
    "needs_recoding" : false,
    "longitude" : "-73.73864031609764"
  },
  "mailing_office" : "209-29 111RD",
  "mstat" : "NY",
  "comp_phone" : "(718) 465-1216",
  "mail_city" : "QUEENS VILLAGE",
  "type" : "CL.1",
  "bus_name" : "EZRA CAMPBELL DBA CAMPBELL LANDSCAPING"
}
, {
  "location_1" : {
    "latitude" : "40.617432323359196",
    "human_address" : "{\"address\":\"42 CLINTON AVE\",\"city\":\"INWOOD\",\"state\":\"NY\",\"zip\":\"11096\"}",
    "needs_recoding" : false,
    "longitude" : "-73.73856727159045"
  },
  "mailing_office" : "42 CLINTON AVE.",
  "mstat" : "NY",
  "comp_phone" : "(516) 239-0628",
  "mail_city" : "INWOOD",
  "type" : "CL.1",
  "bus_name" : "F&M LANDSCAPING"
}
, {
  "location_1" : {
    "latitude" : "40.72536895331581",
    "human_address" : "{\"address\":\"103 HAYES STREET\",\"city\":\"GARDEN CITY\",\"state\":\"NY\",\"zip\":\"11530\"}",
    "needs_recoding" : false,
    "longitude" : "-73.67257502108043"
  },
  "mailing_office" : "103 HAYES STREET",
  "mstat" : "NY",
  "comp_phone" : "(516) 352-9398",
  "mail_city" : "GARDEN CITY",
  "type" : "CL.1",
  "bus_name" : "F. CASTELLANO LANDSCAPING ASSOCIATES INC."
}
, {
  "location_1" : {
    "latitude" : "40.603757172732216",
    "human_address" : "{\"address\":\"110 A DINSMORE STREET\",\"city\":\"STATEN ISLAND\",\"state\":\"NY\",\"zip\":\"10314\"}",
    "needs_recoding" : false,
    "longitude" : "-74.16985704102494"
  },
  "mailing_office" : "110 A DINSMORE STREET",
  "mstat" : "NY",
  "comp_phone" : "(718) 698-2725",
  "mail_city" : "STATEN ISLAND",
  "type" : "CL.1",
  "bus_name" : "FAMILY TREE SERVICE INC."
}
, {
  "location_1" : {
    "latitude" : "40.56602048965391",
    "human_address" : "{\"address\":\"61367 STATEN ISLAND\",\"city\":\"NY\",\"state\":\"\",\"zip\":\"10306\"}",
    "needs_recoding" : false,
    "longitude" : "-74.11994566905736"
  },
  "mailing_office" : "P.O. BOX 61367",
  "mstat" : "NY",
  "comp_phone" : "(347) 861-0497",
  "mail_city" : "STATEN ISLAND",
  "type" : "CL.1",
  "bus_name" : "FBLG OF STATEN ISLAND INC."
}
, {
  "location_1" : {
    "latitude" : "40.7849280967543",
    "human_address" : "{\"address\":\"123 02 11TH AVENUE\",\"city\":\"COLLEGE POINT\",\"state\":\"NY\",\"zip\":\"11356\"}",
    "needs_recoding" : false,
    "longitude" : "-73.84181070040347"
  },
  "mailing_office" : "123-02 11TH AVENUE",
  "mstat" : "NY",
  "comp_phone" : "(718) 460-5827",
  "mail_city" : "COLLEGE POINT",
  "type" : "CL.1",
  "bus_name" : "FELIPE A. ANDRADES"
}
, {
  "location_1" : {
    "latitude" : "40.89848844395607",
    "human_address" : "{\"address\":\"185 WOODLAND AVE\",\"city\":\"NEW ROCHELLE\",\"state\":\"NY\",\"zip\":\"10805\"}",
    "needs_recoding" : false,
    "longitude" : "-73.78386612220629"
  },
  "mailing_office" : "185 WOODLAND AVE",
  "mstat" : "NY",
  "comp_phone" : "(914) 576-2797",
  "mail_city" : "NEW ROCHELLE",
  "type" : "CL.1",
  "bus_name" : "FERNANDO LANDSCAPING"
}
, {
  "location_1" : {
    "latitude" : "40.68871379040917",
    "human_address" : "{\"address\":\"110 26 101 AVE\",\"city\":\"RICHMOND HILL\",\"state\":\"NY\",\"zip\":\"11419\"}",
    "needs_recoding" : false,
    "longitude" : "-73.82288833053201"
  },
  "mailing_office" : "110-26 101 AVE",
  "mstat" : "NY",
  "comp_phone" : "(718) 845-3049",
  "mail_city" : "RICHMOND HILL",
  "type" : "CL.1",
  "bus_name" : "FIORE LANDSCAPING INC."
}
, {
  "location_1" : {
    "latitude" : "40.78351012251005",
    "human_address" : "{\"address\":\"124 HALF HOLLOW RD\",\"city\":\"MELVILLE\",\"state\":\"NY\",\"zip\":\"11747\"}",
    "needs_recoding" : false,
    "longitude" : "-73.39596155130835"
  },
  "mailing_office" : "124 HALF HOLLOW RD",
  "mstat" : "NY",
  "comp_phone" : "(631) 253-0321",
  "mail_city" : "MELVILLE",
  "type" : "CL.1",
  "bus_name" : "FIORINI LANDSCAPE INC."
}
, {
  "location_1" : {
    "latitude" : "40.69928860358624",
    "human_address" : "{\"address\":\"116 40 237TH STREET\",\"city\":\"ELMONT\",\"state\":\"NY\",\"zip\":\"11003\"}",
    "needs_recoding" : false,
    "longitude" : "-73.70558101105479"
  },
  "mailing_office" : "116-40 237TH STREET",
  "mstat" : "NY",
  "comp_phone" : "(516) 285-3948",
  "mail_city" : "ELMONT",
  "type" : "CL.1",
  "bus_name" : "FITZBERT CAMPBELL"
}
, {
  "location_1" : {
    "latitude" : "40.62771087386505",
    "human_address" : "{\"address\":\"34 HARVEST AVE\",\"city\":\"STATEN ISLAND\",\"state\":\"NY\",\"zip\":\"10310\"}",
    "needs_recoding" : false,
    "longitude" : "-74.10646367780178"
  },
  "mailing_office" : "34 HARVEST AVE",
  "mstat" : "NY",
  "comp_phone" : "(917) 578-5022",
  "mail_city" : "STATEN ISLAND",
  "type" : "CL.1",
  "bus_name" : "FITZ'S LAWN CARE INC."
}
, {
  "location_1" : {
    "latitude" : "40.86603191191864",
    "human_address" : "{\"address\":\"8 CARPENTER STREET\",\"city\":\"GLEN COVE\",\"state\":\"NY\",\"zip\":\"11542\"}",
    "needs_recoding" : false,
    "longitude" : "-73.64644971612927"
  },
  "mailing_office" : "8 CARPENTER STREET",
  "mstat" : "NY",
  "comp_phone" : "(516) 656-0859",
  "mail_city" : "GLEN COVE",
  "type" : "CL.1",
  "bus_name" : "FLOR LANDSCAPING INC."
}
, {
  "location_1" : {
    "latitude" : "40.61823913373146",
    "human_address" : "{\"address\":\"1660 70TH STREET\",\"city\":\"BROOKLYN\",\"state\":\"NY\",\"zip\":\"11204\"}",
    "needs_recoding" : false,
    "longitude" : "-73.99640666760013"
  },
  "mailing_office" : "1660 70TH STREET",
  "mstat" : "NY",
  "comp_phone" : "(347) 675-9215",
  "mail_city" : "BROOKLYN",
  "type" : "CL.1",
  "bus_name" : "FORTRESS CONSTRUCTION & LANDSCAPING, INC"
}
, {
  "location_1" : {
    "latitude" : "40.641821936793804",
    "human_address" : "{\"address\":\"250 MAIN STREET\",\"city\":\"EAST ROCKAWAY\",\"state\":\"NY\",\"zip\":\"11518\"}",
    "needs_recoding" : false,
    "longitude" : "-73.67158576684818"
  },
  "mailing_office" : "250 MAIN STREET",
  "mstat" : "NY",
  "comp_phone" : "(646) 872-3939",
  "mail_city" : "EAST ROCKAWAY",
  "type" : "CL.1",
  "bus_name" : "FRANCESCO VENTIMGLIA"
}
, {
  "location_1" : {
    "latitude" : "40.60067214332441",
    "human_address" : "{\"address\":\"31 LESLIE AVE\",\"city\":\"STATEN ISLAND\",\"state\":\"NY\",\"zip\":\"10305\"}",
    "needs_recoding" : false,
    "longitude" : "-74.08211156070186"
  },
  "mailing_office" : "31 LESLIE AVE",
  "mstat" : "NY",
  "comp_phone" : "(718) 273-9215",
  "mail_city" : "STATEN ISLAND",
  "type" : "CL.1",
  "bus_name" : "FRANGELLA LANDSCAPING INC."
}
, {
  "location_1" : {
    "latitude" : "40.6031666568765",
    "human_address" : "{\"address\":\"8850 BAY 16TH STREET\",\"city\":\"BROOKLYN\",\"state\":\"NY\",\"zip\":\"11214\"}",
    "needs_recoding" : false,
    "longitude" : "-74.00933987349185"
  },
  "mailing_office" : "8850 BAY 16TH STREET",
  "mstat" : "NY",
  "comp_phone" : "(718) 259-4991",
  "mail_city" : "BROOKLYN",
  "type" : "CL.1",
  "bus_name" : "FRANK & SONS LANDSCAPING"
}
, {
  "location_1" : {
    "latitude" : "40.97803746534476",
    "human_address" : "{\"address\":\"156 MONTGOMERY AVENUE\",\"city\":\"SCARSDALE\",\"state\":\"NY\",\"zip\":\"10583\"}",
    "needs_recoding" : false,
    "longitude" : "-73.80418699823926"
  },
  "mailing_office" : "156 MONTGOMERY AVENUE",
  "mstat" : "NY",
  "comp_phone" : "(914) 725-9558",
  "mail_city" : "SCARSDALE",
  "type" : "CL.1",
  "bus_name" : "FRANK FRANCIAMORE INC"
}
, {
  "location_1" : {
    "latitude" : "40.61736937081719",
    "human_address" : "{\"address\":\"40 CHESTNUT ROAD\",\"city\":\"INWOOD\",\"state\":\"NY\",\"zip\":\"11096\"}",
    "needs_recoding" : false,
    "longitude" : "-73.75545653930072"
  },
  "mailing_office" : "40 CHESTNUT ROAD",
  "mstat" : "NY",
  "comp_phone" : "(516) 239-6508",
  "mail_city" : "INWOOD",
  "type" : "CL.1",
  "bus_name" : "FREDY A SANTOS"
}
, {
  "location_1" : {
    "latitude" : "40.60869937459951",
    "human_address" : "{\"address\":\"1992 CONEY ISLAND AVENUE\",\"city\":\"BROOKLYN\",\"state\":\"NY\",\"zip\":\"11223\"}",
    "needs_recoding" : false,
    "longitude" : "-73.96222697903747"
  },
  "mailing_office" : "1992 CONEY ISLAND AVENUE APT 2F",
  "mstat" : "NY",
  "comp_phone" : "(718) 998-7465",
  "mail_city" : "BROOKLYN",
  "type" : "CL.1",
  "bus_name" : "FRUCTUOSO GIL"
}
, {
  "location_1" : {
    "latitude" : "40.62564675265818",
    "human_address" : "{\"address\":\"57 TARGEE STREET\",\"city\":\"STATEN ISLAND\",\"state\":\"NY\",\"zip\":\"10304\"}",
    "needs_recoding" : false,
    "longitude" : "-74.08335018402447"
  },
  "mailing_office" : "57 TARGEE STREET",
  "mstat" : "NY",
  "comp_phone" : "(718) 442-7068",
  "mail_city" : "STATEN ISLAND",
  "type" : "CL.1",
  "bus_name" : "FUENTES LANDSCAPING & CONSTRUCTION INC"
}
, {
  "location_1" : {
    "latitude" : "40.70498132291158",
    "human_address" : "{\"address\":\"81 JAMES STREET\",\"city\":\"FRANKLIN SQUARE\",\"state\":\"NY\",\"zip\":\"11010\"}",
    "needs_recoding" : false,
    "longitude" : "-73.67447259056223"
  },
  "mailing_office" : "81 JAMES STREET",
  "mstat" : "NY",
  "comp_phone" : "(516) 437-5457",
  "mail_city" : "FRANKLIN SQUARE",
  "type" : "CL.1",
  "bus_name" : "FUSCHETTO LANDSCAPING INC"
}
, {
  "location_1" : {
    "latitude" : "40.93048604113901",
    "human_address" : "{\"address\":\"570 5TH AVENUE\",\"city\":\"NEW ROCHELLE\",\"state\":\"NY\",\"zip\":\"10801\"}",
    "needs_recoding" : false,
    "longitude" : "-73.76872484569131"
  },
  "mailing_office" : "570 5TH AVENUE APT. 4J",
  "mstat" : "NY",
  "comp_phone" : "(914) 494-9401",
  "mail_city" : "NEW ROCHELLE",
  "type" : "CL.1",
  "bus_name" : "G & F OLIVEROS LANDSCAPING INC."
}
, {
  "location_1" : {
    "latitude" : "40.760350968822195",
    "human_address" : "{\"address\":\"48 18 190TH STREET\",\"city\":\"FRESH MEADOWS\",\"state\":\"NY\",\"zip\":\"11358\"}",
    "needs_recoding" : false,
    "longitude" : "-73.79632645819947"
  },
  "mailing_office" : "48-18 190TH STREET",
  "mstat" : "NY",
  "comp_phone" : "(718) 229-0970",
  "mail_city" : "FRESH MEADOWS",
  "type" : "CL.1",
  "bus_name" : "G & G LANDSCAPING INC."
}
, {
  "location_1" : {
    "latitude" : "40.538692603912686",
    "human_address" : "{\"address\":\"5 LUNDSTEN AVENUE\",\"city\":\"STATEN ISLAND\",\"state\":\"NY\",\"zip\":\"10309\"}",
    "needs_recoding" : false,
    "longitude" : "-74.23561157024604"
  },
  "mailing_office" : "5 LUNDSTEN AVENUE",
  "mstat" : "NY",
  "comp_phone" : "(718) 605-9115",
  "mail_city" : "STATEN ISLAND",
  "type" : "CL.1",
  "bus_name" : "G. RUGGIERO LANDSCAPING INC."
}
, {
  "location_1" : {
    "latitude" : "40.61654071408276",
    "human_address" : "{\"address\":\"1251 73\",\"city\":\"BROOKLYN\",\"state\":\"NY\",\"zip\":\"11228\"}",
    "needs_recoding" : false,
    "longitude" : "-74.0132778473947"
  },
  "mailing_office" : "1251 73 STEET",
  "mstat" : "NY",
  "comp_phone" : "(718) 680-7163",
  "mail_city" : "BROOKLYN",
  "type" : "CL.1",
  "bus_name" : "GABRIEL LANDSCAPING INC"
}
, {
  "location_1" : {
    "latitude" : "40.23498663717908",
    "human_address" : "{\"address\":\"2151 GEORGES LANE\",\"city\":\"WARRINGTON\",\"state\":\"PA\",\"zip\":\"18976\"}",
    "needs_recoding" : false,
    "longitude" : "-75.13519639665276"
  },
  "mailing_office" : "2151 GEORGES LANE",
  "mstat" : "PA",
  "comp_phone" : "(718) 698-4215",
  "mail_city" : "WARRINGTON",
  "type" : "CL.1",
  "bus_name" : "GARDEN CARE CORP"
}
, {
  "location_1" : {
    "latitude" : "40.6164160894661",
    "human_address" : "{\"address\":\"13 CYPRESS RD\",\"city\":\"INWOOD\",\"state\":\"NY\",\"zip\":\"11096\"}",
    "needs_recoding" : false,
    "longitude" : "-73.75242582406196"
  },
  "mailing_office" : "13 CYPRESS RD",
  "mstat" : "NY",
  "comp_phone" : "(516) 371-6913",
  "mail_city" : "INWOOD",
  "type" : "CL.1",
  "bus_name" : "GARDEN OF EDEN LANDSCAPING CONTRACTOR INC"
}
, {
  "location_1" : {
    "latitude" : "40.54156502972888",
    "human_address" : "{\"address\":\"537 RENSSELEAR AVE\",\"city\":\"STATEN ISLAND\",\"state\":\"NY\",\"zip\":\"10312\"}",
    "needs_recoding" : false,
    "longitude" : "-74.19232123629284"
  },
  "mailing_office" : "537 RENSSELEAR AVE",
  "mstat" : "NY",
  "comp_phone" : "(718) 984-5025",
  "mail_city" : "STATEN ISLAND",
  "type" : "CL.1",
  "bus_name" : "GASPARE CRUCIATA/D.B.A. GASPARE CRUCIATA CONTRACTING"
}
, {
  "location_1" : {
    "latitude" : "40.672902506126434",
    "human_address" : "{\"address\":\"158 ANN STREET\",\"city\":\"VALLEY STREAM\",\"state\":\"NY\",\"zip\":\"11580\"}",
    "needs_recoding" : false,
    "longitude" : "-73.68745880066535"
  },
  "mailing_office" : "158 ANN STREET",
  "mstat" : "NY",
  "comp_phone" : "(516) 872-8676",
  "mail_city" : "VALLEY STREAM",
  "type" : "CL.1",
  "bus_name" : "GAUDIO LOPRESTI"
}
, {
  "location_1" : {
    "latitude" : "40.7512997969481",
    "human_address" : "{\"address\":\"42 41 156TH STREET\",\"city\":\"FLUSHING\",\"state\":\"NY\",\"zip\":\"11355\"}",
    "needs_recoding" : false,
    "longitude" : "-73.82147854789662"
  },
  "mailing_office" : "42-41 156TH STREET 2ND FLOOR",
  "mstat" : "NY",
  "comp_phone" : "(718) 791-0280",
  "mail_city" : "FLUSHING",
  "type" : "CL.1",
  "bus_name" : "GENARO LARA D.B.A. GL LANDSCAPING"
}
, {
  "location_1" : {
    "latitude" : "40.85823494258552",
    "human_address" : "{\"address\":\"2245 TIEMANN AVE\",\"city\":\"BRONX\",\"state\":\"NY\",\"zip\":\"10469\"}",
    "needs_recoding" : false,
    "longitude" : "-73.83818044804106"
  },
  "mailing_office" : "2245 TIEMANN AVE.",
  "mstat" : "NY",
  "comp_phone" : "(718) 515-6698",
  "mail_city" : "BRONX",
  "type" : "CL.1",
  "bus_name" : "GIORGIO AGOSTINO D/B/A GIORGIO AGOSTINO LANDSCAPE"
}
, {
  "location_1" : {
    "latitude" : "40.61668588607489",
    "human_address" : "{\"address\":\"126 SOLOMON AVE\",\"city\":\"INWOOD\",\"state\":\"NY\",\"zip\":\"11096\"}",
    "needs_recoding" : false,
    "longitude" : "-73.7512117393224"
  },
  "mailing_office" : "126 SOLOMON AVE.",
  "mstat" : "NY",
  "comp_phone" : "(516) 343-5618",
  "mail_city" : "INWOOD",
  "type" : "CL.1",
  "bus_name" : "GLORILANDO B. APARICIO"
}
, {
  "location_1" : {
    "latitude" : "40.65817022817356",
    "human_address" : "{\"address\":\"155 80 90TH STREET\",\"city\":\"HOWARD BEACH\",\"state\":\"NY\",\"zip\":\"11414\"}",
    "needs_recoding" : false,
    "longitude" : "-73.84496263981396"
  },
  "mailing_office" : "155 -80 90TH STREET",
  "mstat" : "NY",
  "comp_phone" : "(718) 641-1268",
  "mail_city" : "HOWARD BEACH",
  "type" : "CL.1",
  "bus_name" : "GNC LANDSCAPING LTD."
}
, {
  "location_1" : {
    "latitude" : "40.61668588607489",
    "human_address" : "{\"address\":\"126 SOLOMON AVE\",\"city\":\"INWOOD\",\"state\":\"NY\",\"zip\":\"11096\"}",
    "needs_recoding" : false,
    "longitude" : "-73.7512117393224"
  },
  "mailing_office" : "126 SOLOMON AVE.",
  "mstat" : "NY",
  "comp_phone" : "(516) 343-5618",
  "mail_city" : "INWOOD",
  "type" : "CL.1",
  "bus_name" : "GREAT LANDSCAPING & DESIGN"
}
, {
  "location_1" : {
    "latitude" : "40.68036799396164",
    "human_address" : "{\"address\":\"556 FOREST AVENUE\",\"city\":\"MASSAPEQUA\",\"state\":\"NY\",\"zip\":\"11758\"}",
    "needs_recoding" : false,
    "longitude" : "-73.47771564836609"
  },
  "mailing_office" : "556 FOREST AVENUE",
  "mstat" : "NY",
  "comp_phone" : "(516) 541-3232",
  "mail_city" : "MASSAPEQUA",
  "type" : "CL.1",
  "bus_name" : "GREEN EDGE LANDSCAPING LLC"
}
, {
  "location_1" : {
    "latitude" : "40.745924680379744",
    "human_address" : "{\"address\":\"48 50 210th ST\",\"city\":\"BAYSIDE\",\"state\":\"NY\",\"zip\":\"11364\"}",
    "needs_recoding" : false,
    "longitude" : "-73.75790275560763"
  },
  "mailing_office" : "48-50 210th ST",
  "mstat" : "NY",
  "comp_phone" : "(718) 229-2734",
  "mail_city" : "BAYSIDE",
  "type" : "CL.1",
  "bus_name" : "GREEN GRO INC"
}
, {
  "location_1" : {
    "latitude" : "40.6637992168682",
    "human_address" : "{\"address\":\"226 JAMAICA AVENUE\",\"city\":\"VALLEY STREAM\",\"state\":\"NY\",\"zip\":\"11580\"}",
    "needs_recoding" : false,
    "longitude" : "-73.70907471947243"
  },
  "mailing_office" : "226 E. JAMAICA AVENUE",
  "mstat" : "NY",
  "comp_phone" : "(516) 593-4059",
  "mail_city" : "VALLEY STREAM",
  "type" : "CL.1",
  "bus_name" : "GREEN VALLEY LANDSCAPING CORP."
}
, {
  "location_1" : {
    "latitude" : "40.704252872067855",
    "human_address" : "{\"address\":\"739 STERLING ST\",\"city\":\"N BELLMORE\",\"state\":\"NY\",\"zip\":\"11710\"}",
    "needs_recoding" : false,
    "longitude" : "-73.54213735395075"
  },
  "mailing_office" : "739 STERLING ST",
  "mstat" : "NY",
  "comp_phone" : "(516) 679-1510",
  "mail_city" : "N. BELLMORE",
  "type" : "CL.1",
  "bus_name" : "GRO-KIND ORGANICS INC"
}
, {
  "location_1" : {
    "latitude" : "40.76587441751548",
    "human_address" : "{\"address\":\"213 CLAYWOOD DR\",\"city\":\"BRENTWOOD\",\"state\":\"NY\",\"zip\":\"11717\"}",
    "needs_recoding" : false,
    "longitude" : "-73.23191621994368"
  },
  "mailing_office" : "213 CLAYWOOD DR,",
  "mstat" : "NY",
  "comp_phone" : "(917) 299-8295",
  "mail_city" : "BRENTWOOD",
  "type" : "CL.1",
  "bus_name" : "GUADALUPE PRADO"
}
, {
  "location_1" : {
    "latitude" : "40.760350968822195",
    "human_address" : "{\"address\":\"173 08 47TH AVE\",\"city\":\"FLUSHING\",\"state\":\"NY\",\"zip\":\"11358\"}",
    "needs_recoding" : false,
    "longitude" : "-73.79632645819947"
  },
  "mailing_office" : "173-08 47TH AVE",
  "mstat" : "NY",
  "comp_phone" : "(718) 279-0631",
  "mail_city" : "FLUSHING",
  "type" : "CL.1",
  "bus_name" : "H GONZALEZ LANDSCAPING INC"
}
, {
  "location_1" : {
    "latitude" : "40.70127779011942",
    "human_address" : "{\"address\":\"8727 133RD STREET\",\"city\":\"RICHMOND HILL\",\"state\":\"NY\",\"zip\":\"11418\"}",
    "needs_recoding" : false,
    "longitude" : "-73.8190691518353"
  },
  "mailing_office" : "8727 133RD STREET",
  "mstat" : "NY",
  "comp_phone" : "(718) 523-8701",
  "mail_city" : "RICHMOND HILL",
  "type" : "CL.1",
  "bus_name" : "HANDYMAN LANDSCAPING CO INC."
}
, {
  "location_1" : {
    "latitude" : "40.75383619318046",
    "human_address" : "{\"address\":\"9426 34TH RD\",\"city\":\"JACKSON HEIGHTS\",\"state\":\"NY\",\"zip\":\"11372\"}",
    "needs_recoding" : false,
    "longitude" : "-73.87268480226442"
  },
  "mailing_office" : "9426 34TH RD.",
  "mstat" : "NY",
  "comp_phone" : "(718) 779-4160",
  "mail_city" : "JACKSON HEIGHTS",
  "type" : "CL.1",
  "bus_name" : "HARVEY LANDSCAPING CORP."
}
, {
  "location_1" : {
    "latitude" : "40.600614338480966",
    "human_address" : "{\"address\":\"29 32 BEACH CHANNEL DRIVE\",\"city\":\"FAR ROCKAWAY\",\"state\":\"NY\",\"zip\":\"11691\"}",
    "needs_recoding" : false,
    "longitude" : "-73.76256777468302"
  },
  "mailing_office" : "29-32 BEACH CHANNEL DRIVE # 20",
  "mstat" : "NY",
  "comp_phone" : "(347) 424-8506",
  "mail_city" : "FAR ROCKAWAY",
  "type" : "CL.1",
  "bus_name" : "HEBER ROMERO"
}
, {
  "location_1" : {
    "latitude" : "40.71311535449007",
    "human_address" : "{\"address\":\"87 77 169TH STREET\",\"city\":\"JAMAICA\",\"state\":\"NY\",\"zip\":\"11432\"}",
    "needs_recoding" : false,
    "longitude" : "-73.79282099978928"
  },
  "mailing_office" : "87-77 169TH STREET APT. A1",
  "mstat" : "NY",
  "comp_phone" : "(718) 790-3451",
  "mail_city" : "JAMAICA",
  "type" : "CL.1",
  "bus_name" : "HECTOR JUAREZ D.B.A. JUAREZ LANDSCAPING"
}
, {
  "location_1" : {
    "latitude" : "40.903016366055105",
    "human_address" : "{\"address\":\"976 MCLEAN AVENUE\",\"city\":\"YONKERS\",\"state\":\"NY\",\"zip\":\"10704\"}",
    "needs_recoding" : false,
    "longitude" : "-73.86538952301994"
  },
  "mailing_office" : "976 MCLEAN AVENUE",
  "mstat" : "NY",
  "comp_phone" : "(718) 653-3791",
  "mail_city" : "YONKERS",
  "type" : "CL.1",
  "bus_name" : "HERMAN SERVICES INC"
}
, {
  "location_1" : {
    "latitude" : "40.69637041236467",
    "human_address" : "{\"address\":\"104 19 93RD AVENUE\",\"city\":\"RICHMOND HILL\",\"state\":\"NY\",\"zip\":\"11418\"}",
    "needs_recoding" : false,
    "longitude" : "-73.84031024991805"
  },
  "mailing_office" : "104-19 93RD AVENUE",
  "mstat" : "NY",
  "comp_phone" : "(646) 764-4744",
  "mail_city" : "RICHMOND HILL",
  "type" : "CL.1",
  "bus_name" : "HERNANDEZ LANDSCAPING"
}
, {
  "location_1" : {
    "latitude" : "40.60445278283004",
    "human_address" : "{\"address\":\"185 BARRETT ROAD\",\"city\":\"LAWRENCE\",\"state\":\"NY\",\"zip\":\"11559\"}",
    "needs_recoding" : false,
    "longitude" : "-73.72509114659954"
  },
  "mailing_office" : "185 BARRETT ROAD",
  "mstat" : "NY",
  "comp_phone" : "(516) 239-2519",
  "mail_city" : "LAWRENCE",
  "type" : "CL.1",
  "bus_name" : "HERRERA MAINTENANCE"
}
, {
  "location_1" : {
    "latitude" : "40.64201680981198",
    "human_address" : "{\"address\":\"209 61ST STREET\",\"city\":\"BROOKLYN\",\"state\":\"NY\",\"zip\":\"11220\"}",
    "needs_recoding" : false,
    "longitude" : "-74.0218859819277"
  },
  "mailing_office" : "209 61ST STREET",
  "mstat" : "NY",
  "comp_phone" : "(718) 492-1697",
  "mail_city" : "BROOKLYN",
  "type" : "CL.1",
  "bus_name" : "HILARION RAFAEL ANGEL BALBUENA"
}
, {
  "location_1" : {
    "latitude" : "40.73784974598706",
    "human_address" : "{\"address\":\"150 BROADWAY\",\"city\":\"GARDEN CITY\",\"state\":\"NY\",\"zip\":\"11040\"}",
    "needs_recoding" : false,
    "longitude" : "-73.65918647707362"
  },
  "mailing_office" : "150 BROADWAY",
  "mstat" : "NY",
  "comp_phone" : "(516) 747-3095",
  "mail_city" : "GARDEN CITY",
  "type" : "CL.1",
  "bus_name" : "HINES & ZAFFARESE LANDSCAPING, INC."
}
, {
  "location_1" : {
    "latitude" : "40.92404717602875",
    "human_address" : "{\"address\":\"24 BROOKSIDE PLACE\",\"city\":\"NEW ROCHELLE\",\"state\":\"NY\",\"zip\":\"10801\"}",
    "needs_recoding" : false,
    "longitude" : "-73.78658207473478"
  },
  "mailing_office" : "24 BROOKSIDE PLACE",
  "mstat" : "NY",
  "comp_phone" : "(914) 636-8349",
  "mail_city" : "NEW ROCHELLE",
  "type" : "CL.1",
  "bus_name" : "HUDSON LANDSCAPING, LLC"
}
, {
  "location_1" : {
    "latitude" : "40.62009569204273",
    "human_address" : "{\"address\":\"1344 64 ST\",\"city\":\"BROOKLYN\",\"state\":\"NY\",\"zip\":\"11234\"}",
    "needs_recoding" : false,
    "longitude" : "-73.9163445248123"
  },
  "mailing_office" : "1344 E 64 ST.",
  "mstat" : "NY",
  "comp_phone" : "(718) 251-3705",
  "mail_city" : "BROOKLYN",
  "type" : "CL.1",
  "bus_name" : "IANDOLO NURSERY & LANDSCAPING"
}
, {
  "location_1" : {
    "latitude" : "40.702939861905065",
    "human_address" : "{\"address\":\"876 ANNETTE DR\",\"city\":\"WANTAGH\",\"state\":\"NY\",\"zip\":\"11793\"}",
    "needs_recoding" : false,
    "longitude" : "-73.52463654726057"
  },
  "mailing_office" : "876 ANNETTE DR",
  "mstat" : "NY",
  "comp_phone" : "(516) 221-0822",
  "mail_city" : "WANTAGH",
  "type" : "CL.1",
  "bus_name" : "IRISH MIKE'S LANDSCAPING SERVICE INC"
}
, {
  "location_1" : {
    "latitude" : "40.701042679887976",
    "human_address" : "{\"address\":\"567 UNIONDALE\",\"city\":\"NY\",\"state\":\"\",\"zip\":\"11553\"}",
    "needs_recoding" : false,
    "longitude" : "-73.59304150975416"
  },
  "mailing_office" : "P.O.BOX 567",
  "mstat" : "NY",
  "comp_phone" : "(516) 567-9778",
  "mail_city" : "UNIONDALE",
  "type" : "CL.1",
  "bus_name" : "ISABEL ALAS RONQUILLO"
}
, {
  "location_1" : {
    "latitude" : "40.671744465262684",
    "human_address" : "{\"address\":\"148 HINSDALE STREET\",\"city\":\"BROOKLYN\",\"state\":\"NY\",\"zip\":\"11207\"}",
    "needs_recoding" : false,
    "longitude" : "-73.90070841100189"
  },
  "mailing_office" : "148 HINSDALE STREET",
  "mstat" : "NY",
  "comp_phone" : "(718) 369-9587",
  "mail_city" : "BROOKLYN",
  "type" : "CL.1",
  "bus_name" : "ISOGON INTERIM LLC"
}
, {
  "location_1" : {
    "latitude" : "40.72931057432362",
    "human_address" : "{\"address\":\"88 29 212 PLACE\",\"city\":\"QUEENS VILLAGE\",\"state\":\"NY\",\"zip\":\"11427\"}",
    "needs_recoding" : false,
    "longitude" : "-73.75067602128132"
  },
  "mailing_office" : "88-29 212 PLACE",
  "mstat" : "NY",
  "comp_phone" : "(917) 807-9106",
  "mail_city" : "QUEENS VILLAGE",
  "type" : "CL.1",
  "bus_name" : "IZZY LANDSCAPER INC"
}
, {
  "location_1" : {
    "latitude" : "40.57657830564432",
    "human_address" : "{\"address\":\"111 02 ROCKAWAY BEACH BLVD\",\"city\":\"ROCKAWAY PARK\",\"state\":\"NY\",\"zip\":\"11694\"}",
    "needs_recoding" : false,
    "longitude" : "-73.85077700055808"
  },
  "mailing_office" : "111 - 02 ROCKAWAY BEACH BLVD.",
  "mstat" : "NY",
  "comp_phone" : "(718) 252-8821",
  "mail_city" : "ROCKAWAY PARK",
  "type" : "CL.1",
  "bus_name" : "J & A LAWNSCAPING, CORP."
}
, {
  "location_1" : {
    "latitude" : "40.68457809700163",
    "human_address" : "{\"address\":\"103 03 101 AVENUE\",\"city\":\"OZONE PARK\",\"state\":\"NY\",\"zip\":\"11416\"}",
    "needs_recoding" : false,
    "longitude" : "-73.8496016684822"
  },
  "mailing_office" : "103-03 101 AVENUE",
  "mstat" : "NY",
  "comp_phone" : "(718) 738-1969",
  "mail_city" : "OZONE PARK",
  "type" : "CL.1",
  "bus_name" : "J & J SERVICE NY INC"
}
, {
  "location_1" : {
    "latitude" : "40.75619500019917",
    "human_address" : "{\"address\":\"563 FLUSHING\",\"city\":\"NY\",\"state\":\"\",\"zip\":\"11352\"}",
    "needs_recoding" : false,
    "longitude" : "-73.82862499974391"
  },
  "mailing_office" : "P.O.BOX 520 563",
  "mstat" : "NY",
  "comp_phone" : "(516) 356-1247",
  "mail_city" : "FLUSHING",
  "type" : "CL.1",
  "bus_name" : "J & L LANDSCAPING DEVELOPMENT INC"
}
, {
  "location_1" : {
    "latitude" : "40.70151727971023",
    "human_address" : "{\"address\":\"240 LUCILLE AVE\",\"city\":\"ELMONT\",\"state\":\"NY\",\"zip\":\"11003\"}",
    "needs_recoding" : false,
    "longitude" : "-73.68520095476457"
  },
  "mailing_office" : "240 LUCILLE AVE.",
  "mstat" : "NY",
  "comp_phone" : "(516) 616-0127",
  "mail_city" : "ELMONT",
  "type" : "CL.1",
  "bus_name" : "J & P POOL INC."
}
, {
  "location_1" : {
    "latitude" : "40.760350968822195",
    "human_address" : "{\"address\":\"29 48 171 ST STREET\",\"city\":\"FLUSHING\",\"state\":\"NY\",\"zip\":\"11358\"}",
    "needs_recoding" : false,
    "longitude" : "-73.79632645819947"
  },
  "mailing_office" : "29-48 171 ST STREET",
  "mstat" : "NY",
  "comp_phone" : "(718) 358-6546",
  "mail_city" : "FLUSHING",
  "type" : "CL.1",
  "bus_name" : "J&A LANDSCAPING, INC."
}
, {
  "location_1" : {
    "latitude" : "40.92342664382852",
    "human_address" : "{\"address\":\"122 5TH AVE\",\"city\":\"NEW ROCHELLE\",\"state\":\"NY\",\"zip\":\"10801\"}",
    "needs_recoding" : false,
    "longitude" : "-73.78279592899145"
  },
  "mailing_office" : "122 5TH AVE",
  "mstat" : "NY",
  "comp_phone" : "(914) 275-6133",
  "mail_city" : "NEW ROCHELLE",
  "type" : "CL.1",
  "bus_name" : "JAR LANDSCAPING CORP."
}
, {
  "location_1" : {
    "latitude" : "40.58619017784156",
    "human_address" : "{\"address\":\"57 BOGOTA STREET\",\"city\":\"STATEN ISLAND\",\"state\":\"NY\",\"zip\":\"10314\"}",
    "needs_recoding" : false,
    "longitude" : "-74.14745101058746"
  },
  "mailing_office" : "57 BOGOTA STREET",
  "mstat" : "NY",
  "comp_phone" : "(718) 698-9312",
  "mail_city" : "STATEN ISLAND",
  "type" : "CL.1",
  "bus_name" : "JEFFREY BACCHI"
}
, {
  "location_1" : {
    "latitude" : "40.61539086235268",
    "human_address" : "{\"address\":\"102 ROGER AVENUE\",\"city\":\"INWOOD\",\"state\":\"NY\",\"zip\":\"11096\"}",
    "needs_recoding" : false,
    "longitude" : "-73.75464714947435"
  },
  "mailing_office" : "102 ROGER AVENUE",
  "mstat" : "NY",
  "comp_phone" : "(516) 413-9494",
  "mail_city" : "INWOOD",
  "type" : "CL.1",
  "bus_name" : "JERRY J. MARTINEZ"
}
, {
  "location_1" : {
    "latitude" : "40.602182174528544",
    "human_address" : "{\"address\":\"2311 CORNAGA AVENUE\",\"city\":\"FAR ROCKAWAY\",\"state\":\"NY\",\"zip\":\"11691\"}",
    "needs_recoding" : false,
    "longitude" : "-73.75792725092232"
  },
  "mailing_office" : "2311 CORNAGA AVENUE APT 5-D",
  "mstat" : "NY",
  "comp_phone" : "(516) 244-9443",
  "mail_city" : "FAR ROCKAWAY",
  "type" : "CL.1",
  "bus_name" : "JIMMY J. POCHON"
}
, {
  "location_1" : {
    "latitude" : "40.84129519198476",
    "human_address" : "{\"address\":\"1560 SELWYN AVENUE\",\"city\":\"BRONX\",\"state\":\"NY\",\"zip\":\"10457\"}",
    "needs_recoding" : false,
    "longitude" : "-73.91038891247021"
  },
  "mailing_office" : "1560 SELWYN AVENUE APT 6F",
  "mstat" : "NY",
  "comp_phone" : "(718) 510-4154",
  "mail_city" : "BRONX",
  "type" : "CL.1",
  "bus_name" : "JM LANDSCAPING SERVICES"
}
, {
  "location_1" : {
    "latitude" : "40.66725476378241",
    "human_address" : "{\"address\":\"17 SAINT MARKS PLACE\",\"city\":\"VALLEY STREAM\",\"state\":\"NY\",\"zip\":\"11580\"}",
    "needs_recoding" : false,
    "longitude" : "-73.69603833282486"
  },
  "mailing_office" : "17 E. SAINT MARKS PLACE",
  "mstat" : "NY",
  "comp_phone" : "(646) 651-7174",
  "mail_city" : "VALLEY STREAM",
  "type" : "CL.1",
  "bus_name" : "JMB LANDSCAPING INC."
}
, {
  "location_1" : {
    "latitude" : "40.801640454620724",
    "human_address" : "{\"address\":\"47 FAIRDALE DRIVE\",\"city\":\"BRENTWOOD\",\"state\":\"NY\",\"zip\":\"11717\"}",
    "needs_recoding" : false,
    "longitude" : "-73.26215142656878"
  },
  "mailing_office" : "47 FAIRDALE DRIVE",
  "mstat" : "NY",
  "comp_phone" : "(631) 231-0870",
  "mail_city" : "BRENTWOOD",
  "type" : "CL.1",
  "bus_name" : "JOAQUIN RIVAS d/b/a/ RIVAS LANDSCAPE GARDENING"
}
, {
  "location_1" : {
    "latitude" : "40.598969099525",
    "human_address" : "{\"address\":\"2114 7TH STREET\",\"city\":\"BROOKLYN\",\"state\":\"NY\",\"zip\":\"11223\"}",
    "needs_recoding" : false,
    "longitude" : "-73.9643192430657"
  },
  "mailing_office" : "2114 EAST 7TH STREET",
  "mstat" : "NY",
  "comp_phone" : "(718) 614-9646",
  "mail_city" : "BROOKLYN",
  "type" : "CL.1",
  "bus_name" : "JONATHAN DAVID D.B.A. DAVID'S LANDSCAPING"
}
, {
  "location_1" : {
    "latitude" : "40.66173292652252",
    "human_address" : "{\"address\":\"35 VALLEY STREAM BLVD\",\"city\":\"VALLEY STREAM\",\"state\":\"NY\",\"zip\":\"11580\"}",
    "needs_recoding" : false,
    "longitude" : "-73.69753120739347"
  },
  "mailing_office" : "35 E VALLEY STREAM BLVD",
  "mstat" : "NY",
  "comp_phone" : "(516) 284-6734",
  "mail_city" : "VALLEY STREAM",
  "type" : "CL.1",
  "bus_name" : "JORGE A. AGUILAR"
}
, {
  "location_1" : {
    "latitude" : "40.611218008136746",
    "human_address" : "{\"address\":\"556 LONG BEACH RD\",\"city\":\"ISLAND PARK\",\"state\":\"NY\",\"zip\":\"11558\"}",
    "needs_recoding" : false,
    "longitude" : "-73.64953439068978"
  },
  "mailing_office" : "556 LONG BEACH RD",
  "mstat" : "NY",
  "comp_phone" : "(516) 432-0238",
  "mail_city" : "ISLAND PARK",
  "type" : "CL.1",
  "bus_name" : "JORGE A. MELENDEZ"
}
, {
  "location_1" : {
    "latitude" : "40.6206249165632",
    "human_address" : "{\"address\":\"28 LORETTA STREET\",\"city\":\"INWOOD\",\"state\":\"NY\",\"zip\":\"11096\"}",
    "needs_recoding" : false,
    "longitude" : "-73.73855827837014"
  },
  "mailing_office" : "28 LORETTA STREET",
  "mstat" : "NY",
  "comp_phone" : "(516) 239-3824",
  "mail_city" : "INWOOD",
  "type" : "CL.1",
  "bus_name" : "JORGE A. VALLE"
}
, {
  "location_1" : {
    "latitude" : "40.70739150595011",
    "human_address" : "{\"address\":\"20 DAFFODIL AVENUE\",\"city\":\"FRANKLIN SQUARE\",\"state\":\"NY\",\"zip\":\"11010\"}",
    "needs_recoding" : false,
    "longitude" : "-73.66796149907009"
  },
  "mailing_office" : "20 DAFFODIL AVENUE",
  "mstat" : "NY",
  "comp_phone" : "(516) 486-2337",
  "mail_city" : "FRANKLIN SQUARE",
  "type" : "CL.1",
  "bus_name" : "JORGE DEL PRIORE LANDSCAPING"
}
, {
  "location_1" : {
    "latitude" : "40.76862022064671",
    "human_address" : "{\"address\":\"144 30 ROOSEVELT AVE\",\"city\":\"FLUSHING\",\"state\":\"NY\",\"zip\":\"11354\"}",
    "needs_recoding" : false,
    "longitude" : "-73.82719028070687"
  },
  "mailing_office" : "144-30 ROOSEVELT AVE #211",
  "mstat" : "NY",
  "comp_phone" : "(718) 961-7271",
  "mail_city" : "FLUSHING",
  "type" : "CL.1",
  "bus_name" : "JORGE H REINA"
}
, {
  "location_1" : {
    "latitude" : "40.62472582501681",
    "human_address" : "{\"address\":\"33 CHESHIRE ROAD\",\"city\":\"INWOOD\",\"state\":\"NY\",\"zip\":\"11096\"}",
    "needs_recoding" : false,
    "longitude" : "-73.75105885457742"
  },
  "mailing_office" : "33 CHESHIRE ROAD",
  "mstat" : "NY",
  "comp_phone" : "(516) 313-7192",
  "mail_city" : "INWOOD",
  "type" : "CL.1",
  "bus_name" : "JOSE & SIPRIANO LANDSCAPING"
}
, {
  "location_1" : {
    "latitude" : "40.62472582501681",
    "human_address" : "{\"address\":\"33 CHESHIRE ROAD\",\"city\":\"INWOOD\",\"state\":\"NY\",\"zip\":\"11096\"}",
    "needs_recoding" : false,
    "longitude" : "-73.75105885457742"
  },
  "mailing_office" : "33 CHESHIRE ROAD",
  "mstat" : "NY",
  "comp_phone" : "(516) 313-7192",
  "mail_city" : "INWOOD",
  "type" : "CL.1",
  "bus_name" : "JOSE A ROMERO DBA JOSE A ROMERO LANDSCAPING"
}
, {
  "location_1" : {
    "latitude" : "40.76862022064671",
    "human_address" : "{\"address\":\"35 30 153 ST\",\"city\":\"FLUSHING\",\"state\":\"NY\",\"zip\":\"11354\"}",
    "needs_recoding" : false,
    "longitude" : "-73.82719028070687"
  },
  "mailing_office" : "35-30  153 ST  APT. 4F",
  "mstat" : "NY",
  "comp_phone" : "(646) 229-1492",
  "mail_city" : "FLUSHING",
  "type" : "CL.1",
  "bus_name" : "JOSE A. AREVALO"
}
, {
  "location_1" : {
    "latitude" : "40.66173292652252",
    "human_address" : "{\"address\":\"35 VALLEY STREAM BLVD\",\"city\":\"VALLEY STREAM\",\"state\":\"NY\",\"zip\":\"11580\"}",
    "needs_recoding" : false,
    "longitude" : "-73.69753120739347"
  },
  "mailing_office" : "35 E. VALLEY STREAM BLVD.",
  "mstat" : "NY",
  "comp_phone" : "(347) 510-2703",
  "mail_city" : "VALLEY STREAM",
  "type" : "CL.1",
  "bus_name" : "JOSE A. CRUZ"
}
, {
  "location_1" : {
    "latitude" : "40.7512997969481",
    "human_address" : "{\"address\":\"147 10\",\"city\":\"FLUSHING\",\"state\":\"NY\",\"zip\":\"11355\"}",
    "needs_recoding" : false,
    "longitude" : "-73.82147854789662"
  },
  "mailing_office" : "147-10 41AVE APT 6L",
  "mstat" : "NY",
  "comp_phone" : "(347) 445-4970",
  "mail_city" : "FLUSHING",
  "type" : "CL.1",
  "bus_name" : "JOSE A. MARTINEZ D/B/A/ MARTINEZ LANDSCAPING"
}
, {
  "location_1" : {
    "latitude" : "40.7512997969481",
    "human_address" : "{\"address\":\"147 10 41ST AVENUE\",\"city\":\"FLUSHING\",\"state\":\"NY\",\"zip\":\"11355\"}",
    "needs_recoding" : false,
    "longitude" : "-73.82147854789662"
  },
  "mailing_office" : "147-10 41ST AVENUE APT 5D",
  "mstat" : "NY",
  "comp_phone" : "(646) 750-3140",
  "mail_city" : "FLUSHING",
  "type" : "CL.1",
  "bus_name" : "JOSE A. MORENO"
}
, {
  "location_1" : {
    "latitude" : "40.70991312049415",
    "human_address" : "{\"address\":\"111 03 208 STREET\",\"city\":\"QUEENS VILLAGE\",\"state\":\"NY\",\"zip\":\"11429\"}",
    "needs_recoding" : false,
    "longitude" : "-73.73864031609764"
  },
  "mailing_office" : "111-03 208 STREET",
  "mstat" : "NY",
  "comp_phone" : "(646) 387-2204",
  "mail_city" : "QUEENS VILLAGE",
  "type" : "CL.1",
  "bus_name" : "JOSE A. ZELAYA"
}
, {
  "location_1" : {
    "latitude" : "40.7849280967543",
    "human_address" : "{\"address\":\"564407 COLLEGE POINT\",\"city\":\"NY\",\"state\":\"\",\"zip\":\"11356\"}",
    "needs_recoding" : false,
    "longitude" : "-73.84181070040347"
  },
  "mailing_office" : "P.O. BOX 564407",
  "mstat" : "NY",
  "comp_phone" : "(917) 642-4240",
  "mail_city" : "COLLEGE POINT",
  "type" : "CL.1",
  "bus_name" : "JOSE BARTOLO RODRIGUEZ"
}
, {
  "location_1" : {
    "latitude" : "40.61539086235268",
    "human_address" : "{\"address\":\"102 ROGER AVENUE\",\"city\":\"INWOOD\",\"state\":\"NY\",\"zip\":\"11096\"}",
    "needs_recoding" : false,
    "longitude" : "-73.75464714947435"
  },
  "mailing_office" : "102 ROGER AVENUE",
  "mstat" : "NY",
  "comp_phone" : "(516) 371-4947",
  "mail_city" : "INWOOD",
  "type" : "CL.1",
  "bus_name" : "JOSE C. MARTINEZ d/b/a MARTINEZ LANDSCAPING"
}
, {
  "location_1" : {
    "latitude" : "40.66974588580359",
    "human_address" : "{\"address\":\"2 MOORE AVENUE\",\"city\":\"FREEPORT\",\"state\":\"NY\",\"zip\":\"11520\"}",
    "needs_recoding" : false,
    "longitude" : "-73.59030504184005"
  },
  "mailing_office" : "2 MOORE AVENUE",
  "mstat" : "NY",
  "comp_phone" : "(516) 690-5011",
  "mail_city" : "FREEPORT",
  "type" : "CL.1",
  "bus_name" : "JOSE D. VIERA"
}
, {
  "location_1" : {
    "latitude" : "40.72816440726166",
    "human_address" : "{\"address\":\"158 52 75TH RD\",\"city\":\"FLUSHING\",\"state\":\"NY\",\"zip\":\"11366\"}",
    "needs_recoding" : false,
    "longitude" : "-73.79226817393703"
  },
  "mailing_office" : "158-52 75TH RD. APT#2",
  "mstat" : "NY",
  "comp_phone" : "(718) 969-4534",
  "mail_city" : "FLUSHING",
  "type" : "CL.1",
  "bus_name" : "JOSE E. LOBO-QUINTANILLA"
}
, {
  "location_1" : {
    "latitude" : "40.61958612160231",
    "human_address" : "{\"address\":\"960014 INWOOD\",\"city\":\"NY\",\"state\":\"\",\"zip\":\"11096\"}",
    "needs_recoding" : false,
    "longitude" : "-73.75090594735155"
  },
  "mailing_office" : "P.O. BOX 960014",
  "mstat" : "NY",
  "comp_phone" : "(347) 268-7914",
  "mail_city" : "INWOOD",
  "type" : "CL.1",
  "bus_name" : "JOSE GARCIA RAMIREZ"
}
, {
  "location_1" : {
    "latitude" : "40.70119264912154",
    "human_address" : "{\"address\":\"101 11 REMINGTON STREET\",\"city\":\"JAMAICA\",\"state\":\"NY\",\"zip\":\"11435\"}",
    "needs_recoding" : false,
    "longitude" : "-73.80979665579099"
  },
  "mailing_office" : "101-11 REMINGTON STREET 2ND FLOOR",
  "mstat" : "NY",
  "comp_phone" : "(718) 297-0989",
  "mail_city" : "JAMAICA",
  "type" : "CL.1",
  "bus_name" : "JOSE GUEVARA"
}
, {
  "location_1" : {
    "latitude" : "40.7512997969481",
    "human_address" : "{\"address\":\"42 62 157TH STREET\",\"city\":\"FLUSHING\",\"state\":\"NY\",\"zip\":\"11355\"}",
    "needs_recoding" : false,
    "longitude" : "-73.82147854789662"
  },
  "mailing_office" : "42-62 157TH STREET, APT. B7",
  "mstat" : "NY",
  "comp_phone" : "(718) 463-7008",
  "mail_city" : "FLUSHING",
  "type" : "CL.1",
  "bus_name" : "JOSE L. COREAS"
}
, {
  "location_1" : {
    "latitude" : "40.6183406386088",
    "human_address" : "{\"address\":\"78 CLINTON AVENUE\",\"city\":\"INWOOD\",\"state\":\"NY\",\"zip\":\"11096\"}",
    "needs_recoding" : false,
    "longitude" : "-73.73845935294696"
  },
  "mailing_office" : "78 CLINTON AVENUE",
  "mstat" : "NY",
  "comp_phone" : "(516) 779-0508",
  "mail_city" : "INWOOD",
  "type" : "CL.1",
  "bus_name" : "JOSE L. LOPEZ"
}
, {
  "location_1" : {
    "latitude" : "40.86301956759282",
    "human_address" : "{\"address\":\"211 CLAY PITTS RD\",\"city\":\"EAST NORTHPORT\",\"state\":\"NY\",\"zip\":\"11731\"}",
    "needs_recoding" : false,
    "longitude" : "-73.33225793482436"
  },
  "mailing_office" : "211 CLAY PITTS RD",
  "mstat" : "NY",
  "comp_phone" : "(631) 266-2058",
  "mail_city" : "EAST NORTHPORT",
  "type" : "CL.1",
  "bus_name" : "JOSE M.  LANDSCAPING CORP"
}
, {
  "location_1" : {
    "latitude" : "40.600614338480966",
    "human_address" : "{\"address\":\"23 11 CORNAGA AVE\",\"city\":\"FAR ROCKAWAY\",\"state\":\"NY\",\"zip\":\"11691\"}",
    "needs_recoding" : false,
    "longitude" : "-73.76256777468302"
  },
  "mailing_office" : "23-11 CORNAGA AVE. APT.2A",
  "mstat" : "NY",
  "comp_phone" : "(347) 246-7854",
  "mail_city" : "FAR ROCKAWAY",
  "type" : "CL.1",
  "bus_name" : "JOSE N. RAMOS & CARLOS A. RAMOS D.B.A. J & C LANDSCAPING"
}
, {
  "location_1" : {
    "latitude" : "40.760350968822195",
    "human_address" : "{\"address\":\"188 15 42ND AVENUE\",\"city\":\"FLUSHING\",\"state\":\"NY\",\"zip\":\"11358\"}",
    "needs_recoding" : false,
    "longitude" : "-73.79632645819947"
  },
  "mailing_office" : "188-15 42ND AVENUE",
  "mstat" : "NY",
  "comp_phone" : "(646) 229-8650",
  "mail_city" : "FLUSHING",
  "type" : "CL.1",
  "bus_name" : "JOSE N. RODRIGUEZ"
}
, {
  "location_1" : {
    "latitude" : "40.59377561537946",
    "human_address" : "{\"address\":\"166 BEACH 25TH STREET\",\"city\":\"FAR ROCKAWAY\",\"state\":\"NY\",\"zip\":\"11691\"}",
    "needs_recoding" : false,
    "longitude" : "-73.75818550971519"
  },
  "mailing_office" : "166 BEACH 25TH STREET",
  "mstat" : "NY",
  "comp_phone" : "(347) 458-3730",
  "mail_city" : "FAR ROCKAWAY",
  "type" : "CL.1",
  "bus_name" : "JOSE O VASQUEZ"
}
, {
  "location_1" : {
    "latitude" : "40.80818751899403",
    "human_address" : "{\"address\":\"98 STEAM BOAT ROAD\",\"city\":\"GREAT NECK\",\"state\":\"NY\",\"zip\":\"11023\"}",
    "needs_recoding" : false,
    "longitude" : "-73.7450783630826"
  },
  "mailing_office" : "98 STEAM BOAT ROAD",
  "mstat" : "NY",
  "comp_phone" : "(917) 519-2239",
  "mail_city" : "GREAT NECK",
  "type" : "CL.1",
  "bus_name" : "JOSE P RODRIGUEZ"
}
, {
  "location_1" : {
    "latitude" : "40.81178480711122",
    "human_address" : "{\"address\":\"12 WALNUT STREET\",\"city\":\"GREENVALE\",\"state\":\"NY\",\"zip\":\"11548\"}",
    "needs_recoding" : false,
    "longitude" : "-73.62547752640597"
  },
  "mailing_office" : "12 WALNUT STREET",
  "mstat" : "NY",
  "comp_phone" : "(516) 808-1668",
  "mail_city" : "GREENVALE",
  "type" : "CL.1",
  "bus_name" : "JOSE P. FLORES"
}
, {
  "location_1" : {
    "latitude" : "40.62147927249106",
    "human_address" : "{\"address\":\"9 BEEKMAN STREET\",\"city\":\"INWOOD\",\"state\":\"NY\",\"zip\":\"11096\"}",
    "needs_recoding" : false,
    "longitude" : "-73.74346857665012"
  },
  "mailing_office" : "9 BEEKMAN STREET",
  "mstat" : "NY",
  "comp_phone" : "(516) 242-3695",
  "mail_city" : "INWOOD",
  "type" : "CL.1",
  "bus_name" : "JOSE R. ANDERSON"
}
, {
  "location_1" : {
    "latitude" : "40.600614338480966",
    "human_address" : "{\"address\":\"29 44 BEACH CHANNEL DR\",\"city\":\"FAR ROCKAWAY\",\"state\":\"NY\",\"zip\":\"11691\"}",
    "needs_recoding" : false,
    "longitude" : "-73.76256777468302"
  },
  "mailing_office" : "29-44 BEACH CHANNEL DR. APT 4B",
  "mstat" : "NY",
  "comp_phone" : "(718) 327-3910",
  "mail_city" : "FAR ROCKAWAY",
  "type" : "CL.1",
  "bus_name" : "JOSE RAUL AMAYA D/B/A J.RAUL LANDSCAPING"
}
, {
  "location_1" : {
    "latitude" : "40.70991312049415",
    "human_address" : "{\"address\":\"101 06 221ST STREET\",\"city\":\"QUEENS VILLAGE\",\"state\":\"NY\",\"zip\":\"11429\"}",
    "needs_recoding" : false,
    "longitude" : "-73.73864031609764"
  },
  "mailing_office" : "101-06 221ST STREET",
  "mstat" : "NY",
  "comp_phone" : "(347) 737-6414",
  "mail_city" : "QUEENS VILLAGE",
  "type" : "CL.1",
  "bus_name" : "JOSE RODRIGUEZ"
}
, {
  "location_1" : {
    "latitude" : "40.61958612160231",
    "human_address" : "{\"address\":\"85 END AVE\",\"city\":\"INWOOD\",\"state\":\"NY\",\"zip\":\"11096\"}",
    "needs_recoding" : false,
    "longitude" : "-73.75090594735155"
  },
  "mailing_office" : "85 WEST END AVE",
  "mstat" : "NY",
  "comp_phone" : "(718) 337-2815",
  "mail_city" : "INWOOD",
  "type" : "CL.1",
  "bus_name" : "JOSE S CABRERA"
}
, {
  "location_1" : {
    "latitude" : "40.69637041236467",
    "human_address" : "{\"address\":\"108 12 85TH AVE\",\"city\":\"RICHMOND HILL\",\"state\":\"NY\",\"zip\":\"11418\"}",
    "needs_recoding" : false,
    "longitude" : "-73.84031024991805"
  },
  "mailing_office" : "108-12 85TH AVE.",
  "mstat" : "NY",
  "comp_phone" : "(718) 805-0150",
  "mail_city" : "RICHMOND HILL",
  "type" : "CL.1",
  "bus_name" : "JOSE SANTOS"
}
, {
  "location_1" : {
    "latitude" : "40.76862022064671",
    "human_address" : "{\"address\":\"147 15 NORTHERN BLVD\",\"city\":\"FLUSHING\",\"state\":\"NY\",\"zip\":\"11354\"}",
    "needs_recoding" : false,
    "longitude" : "-73.82719028070687"
  },
  "mailing_office" : "147-15 NORTHERN BLVD # 3C",
  "mstat" : "NY",
  "comp_phone" : "(347) 225-2401",
  "mail_city" : "FLUSHING",
  "type" : "CL.1",
  "bus_name" : "JOSE V PORTILLO"
}
, {
  "location_1" : {
    "latitude" : "40.61798990301736",
    "human_address" : "{\"address\":\"1 ABRAMS PL\",\"city\":\"INWOOD\",\"state\":\"NY\",\"zip\":\"11096\"}",
    "needs_recoding" : false,
    "longitude" : "-73.74532118003049"
  },
  "mailing_office" : "1 ABRAMS PL",
  "mstat" : "NY",
  "comp_phone" : "(516) 612-2744",
  "mail_city" : "INWOOD",
  "type" : "CL.1",
  "bus_name" : "JOSE VASQUEZ"
}
, {
  "location_1" : {
    "latitude" : "40.72816440726166",
    "human_address" : "{\"address\":\"160 33 78TH ROAD\",\"city\":\"FRESH MEADOWS\",\"state\":\"NY\",\"zip\":\"11366\"}",
    "needs_recoding" : false,
    "longitude" : "-73.79226817393703"
  },
  "mailing_office" : "160-33 78TH ROAD",
  "mstat" : "NY",
  "comp_phone" : "(917) 291-8742",
  "mail_city" : "FRESH MEADOWS",
  "type" : "CL.1",
  "bus_name" : "JOSE WILLIAM LANDSCAPING SERVICE"
}
, {
  "location_1" : {
    "latitude" : "40.57613210582898",
    "human_address" : "{\"address\":\"332 LINCOLN AVENUE\",\"city\":\"STATEN ISLAND\",\"state\":\"NY\",\"zip\":\"10306\"}",
    "needs_recoding" : false,
    "longitude" : "-74.10265843689034"
  },
  "mailing_office" : "332 LINCOLN AVENUE",
  "mstat" : "NY",
  "comp_phone" : "(917) 416-0961",
  "mail_city" : "STATEN ISLAND",
  "type" : "CL.1",
  "bus_name" : "JOSEPH BAGNOLI"
}
, {
  "location_1" : {
    "latitude" : "40.91374993879327",
    "human_address" : "{\"address\":\"240 SICKLES AVENUE\",\"city\":\"NEW ROCHELLE\",\"state\":\"NY\",\"zip\":\"10801\"}",
    "needs_recoding" : false,
    "longitude" : "-73.79551234248572"
  },
  "mailing_office" : "240 SICKLES AVENUE",
  "mstat" : "NY",
  "comp_phone" : "(914) 632-5973",
  "mail_city" : "NEW ROCHELLE",
  "type" : "CL.1",
  "bus_name" : "JOSEPH BULFAMANTE & SON, INC"
}
, {
  "location_1" : {
    "latitude" : "40.73037817701902",
    "human_address" : "{\"address\":\"5 WILLIS AVENUE\",\"city\":\"FLORAL PARK\",\"state\":\"NY\",\"zip\":\"11001\"}",
    "needs_recoding" : false,
    "longitude" : "-73.69782798366316"
  },
  "mailing_office" : "5 WILLIS AVENUE",
  "mstat" : "NY",
  "comp_phone" : "(516) 488-3355",
  "mail_city" : "FLORAL PARK",
  "type" : "CL.1",
  "bus_name" : "JOSEPH SOFIELD CITY-SCAPE INC"
}
, {
  "location_1" : {
    "latitude" : "40.6489625537065",
    "human_address" : "{\"address\":\"59 PARKVIEW PL\",\"city\":\"BALDWIN\",\"state\":\"NY\",\"zip\":\"11510\"}",
    "needs_recoding" : false,
    "longitude" : "-73.61908334677764"
  },
  "mailing_office" : "59 PARKVIEW PL",
  "mstat" : "NY",
  "comp_phone" : "(516) 377-0199",
  "mail_city" : "BALDWIN",
  "type" : "CL.1",
  "bus_name" : "JUAN E. PEREZ LANDSCAPING CORP"
}
, {
  "location_1" : {
    "latitude" : "40.68903634333208",
    "human_address" : "{\"address\":\"991 UNIONDALE AVENUE\",\"city\":\"UNIONDALE\",\"state\":\"NY\",\"zip\":\"11553\"}",
    "needs_recoding" : false,
    "longitude" : "-73.5961326485899"
  },
  "mailing_office" : "991 UNIONDALE AVENUE",
  "mstat" : "NY",
  "comp_phone" : "(347) 256-3415",
  "mail_city" : "UNIONDALE",
  "type" : "CL.1",
  "bus_name" : "JUAN F. RAMOS"
}
, {
  "location_1" : {
    "latitude" : "40.78628404147537",
    "human_address" : "{\"address\":\"14 28 150TH STREET\",\"city\":\"WHITESTONE\",\"state\":\"NY\",\"zip\":\"11357\"}",
    "needs_recoding" : false,
    "longitude" : "-73.81123206101074"
  },
  "mailing_office" : "14-28 150TH STREET APT. 2",
  "mstat" : "NY",
  "comp_phone" : "(718) 541-3692",
  "mail_city" : "WHITESTONE",
  "type" : "CL.1",
  "bus_name" : "JUAN J TORRES"
}
, {
  "location_1" : {
    "latitude" : "40.749407831158976",
    "human_address" : "{\"address\":\"5 WILLY LN\",\"city\":\"HICKSVILLE\",\"state\":\"NY\",\"zip\":\"11801\"}",
    "needs_recoding" : false,
    "longitude" : "-73.50925814055955"
  },
  "mailing_office" : "5 WILLY LN",
  "mstat" : "NY",
  "comp_phone" : "(516) 287-6642",
  "mail_city" : "HICKSVILLE",
  "type" : "CL.1",
  "bus_name" : "JUAN P. CANALES d/b/a JUAN P. LANDSCAPING"
}
, {
  "location_1" : {
    "latitude" : "40.7512997969481",
    "human_address" : "{\"address\":\"141 19 NEGUNDO AVENUE\",\"city\":\"FLUSHING\",\"state\":\"NY\",\"zip\":\"11355\"}",
    "needs_recoding" : false,
    "longitude" : "-73.82147854789662"
  },
  "mailing_office" : "141-19 NEGUNDO AVENUE",
  "mstat" : "NY",
  "comp_phone" : "(516) 477-5789",
  "mail_city" : "FLUSHING",
  "type" : "CL.1",
  "bus_name" : "JUAN P. GAMEZ"
}
, {
  "location_1" : {
    "latitude" : "40.63904174214966",
    "human_address" : "{\"address\":\"611 21ST STREET\",\"city\":\"BROOKLYN\",\"state\":\"NY\",\"zip\":\"11226\"}",
    "needs_recoding" : false,
    "longitude" : "-73.95781428032844"
  },
  "mailing_office" : "611 E 21ST STREET APT. 2B",
  "mstat" : "NY",
  "comp_phone" : "(646) 284-2908",
  "mail_city" : "BROOKLYN",
  "type" : "CL.1",
  "bus_name" : "JVG LANDSCAPING CORP."
}
, {
  "location_1" : {
    "latitude" : "40.89404242130264",
    "human_address" : "{\"address\":\"4319 BRONXWOOD AVE\",\"city\":\"BRONX\",\"state\":\"NY\",\"zip\":\"10466\"}",
    "needs_recoding" : false,
    "longitude" : "-73.85279791916989"
  },
  "mailing_office" : "4319 BRONXWOOD AVE",
  "mstat" : "NY",
  "comp_phone" : "(718) 324-6667",
  "mail_city" : "BRONX",
  "type" : "CL.1",
  "bus_name" : "K.W. PRICE LANDSCAPING LLC"
}
, {
  "location_1" : {
    "latitude" : "40.8400864713733",
    "human_address" : "{\"address\":\"60 6TH AVENUE\",\"city\":\"HUNTINGTON\",\"state\":\"NY\",\"zip\":\"11746\"}",
    "needs_recoding" : false,
    "longitude" : "-73.41797695458558"
  },
  "mailing_office" : "60 6TH AVENUE",
  "mstat" : "NY",
  "comp_phone" : "(631) 421-6042",
  "mail_city" : "HUNTINGTON",
  "type" : "CL.1",
  "bus_name" : "KENNETH LEE LANDSCAPING"
}
, {
  "location_1" : {
    "latitude" : "40.66971118122609",
    "human_address" : "{\"address\":\"141 16 184TH STREET\",\"city\":\"SPRNGFLD GDNS\",\"state\":\"NY\",\"zip\":\"11413\"}",
    "needs_recoding" : false,
    "longitude" : "-73.75087393328533"
  },
  "mailing_office" : "141-16 184TH STREET",
  "mstat" : "NY",
  "comp_phone" : "(718) 341-2805",
  "mail_city" : "SPRNGFLD GDNS",
  "type" : "CL.1",
  "bus_name" : "KEVIN BISHOP LANDSCAPING INC"
}
, {
  "location_1" : {
    "latitude" : "40.73704138495202",
    "human_address" : "{\"address\":\"83 34 249TH STREET\",\"city\":\"BELLEROSE\",\"state\":\"NY\",\"zip\":\"11426\"}",
    "needs_recoding" : false,
    "longitude" : "-73.72415699894628"
  },
  "mailing_office" : "83-34 249TH STREET",
  "mstat" : "NY",
  "comp_phone" : "(718) 347-4210",
  "mail_city" : "BELLEROSE",
  "type" : "CL.1",
  "bus_name" : "KEVIN M. KILLELEA"
}
, {
  "location_1" : {
    "latitude" : "40.61557115848794",
    "human_address" : "{\"address\":\"166 REDWOOD AVE\",\"city\":\"INWOOD\",\"state\":\"NY\",\"zip\":\"11096\"}",
    "needs_recoding" : false,
    "longitude" : "-73.74214347060605"
  },
  "mailing_office" : "166 REDWOOD AVE",
  "mstat" : "NY",
  "comp_phone" : "(718) 327-1763",
  "mail_city" : "INWOOD",
  "type" : "CL.1",
  "bus_name" : "L&G CONTRACTORS CORP."
}
, {
  "location_1" : {
    "latitude" : "40.51778555147816",
    "human_address" : "{\"address\":\"83 BURTON AVE\",\"city\":\"STATEN ISLAND\",\"state\":\"NY\",\"zip\":\"10309\"}",
    "needs_recoding" : false,
    "longitude" : "-74.20583469872983"
  },
  "mailing_office" : "83 BURTON AVE",
  "mstat" : "NY",
  "comp_phone" : "(718) 227-4450",
  "mail_city" : "STATEN ISLAND",
  "type" : "CL.1",
  "bus_name" : "LARRY ABBADESSA"
}
, {
  "location_1" : {
    "latitude" : "40.743643176951196",
    "human_address" : "{\"address\":\"178 FERNDALE BLVD\",\"city\":\"ISLIP\",\"state\":\"NY\",\"zip\":\"11751\"}",
    "needs_recoding" : false,
    "longitude" : "-73.20457683025302"
  },
  "mailing_office" : "178 FERNDALE BLVD.",
  "mstat" : "NY",
  "comp_phone" : "(631) 291-8468",
  "mail_city" : "ISLIP",
  "type" : "CL.1",
  "bus_name" : "LARRY'S LANDSCAPING"
}
, {
  "location_1" : {
    "latitude" : "40.85357734660459",
    "human_address" : "{\"address\":\"2050 COLONIAL AVE\",\"city\":\"BRONX\",\"state\":\"NY\",\"zip\":\"10461\"}",
    "needs_recoding" : false,
    "longitude" : "-73.8283411840197"
  },
  "mailing_office" : "2050 COLONIAL AVE",
  "mstat" : "NY",
  "comp_phone" : "(917) 488-1404",
  "mail_city" : "BRONX",
  "type" : "CL.1",
  "bus_name" : "LAWN PERFECTION CARE INC"
}
, {
  "location_1" : {
    "latitude" : "40.63985147536911",
    "human_address" : "{\"address\":\"1449 108TH STREET\",\"city\":\"BROOKLYN\",\"state\":\"NY\",\"zip\":\"11236\"}",
    "needs_recoding" : false,
    "longitude" : "-73.88242208363428"
  },
  "mailing_office" : "1449 EAST 108TH STREET#4D",
  "mstat" : "NY",
  "comp_phone" : "(718) 763-4904",
  "mail_city" : "BROOKLYN",
  "type" : "CL.1",
  "bus_name" : "LEEWAY GARDENING"
}
, {
  "location_1" : {
    "latitude" : "40.600614338480966",
    "human_address" : "{\"address\":\"1393 FAR\",\"city\":\"ROCKAWAY\",\"state\":\"NY\",\"zip\":\"11691\"}",
    "needs_recoding" : false,
    "longitude" : "-73.76256777468302"
  },
  "mailing_office" : "P.O. BOX 1393",
  "mstat" : "NY",
  "comp_phone" : "(718) 337-3875",
  "mail_city" : "FAR ROCKAWAY",
  "type" : "CL.1",
  "bus_name" : "LEONIDAS M. VASQUEZ D/B/A LEONIDAS M VASQUEZ, GENERAL GARDENING AND LANDSCAPING"
}
, {
  "location_1" : {
    "latitude" : "40.69684245854643",
    "human_address" : "{\"address\":\"707 CORNELL RD\",\"city\":\"FRANKLIN\",\"state\":\"NY\",\"zip\":\"11010\"}",
    "needs_recoding" : false,
    "longitude" : "-73.66690929229583"
  },
  "mailing_office" : "707 CORNELL RD.",
  "mstat" : "NY",
  "comp_phone" : "(718) 423-3334",
  "mail_city" : "FRANKLIN",
  "type" : "CL.1",
  "bus_name" : "LIBERTY LANDSCAPING INC."
}
, {
  "location_1" : {
    "latitude" : "40.61853294732038",
    "human_address" : "{\"address\":\"81 MOTT AVENUE\",\"city\":\"INWOOD\",\"state\":\"NY\",\"zip\":\"11096\"}",
    "needs_recoding" : false,
    "longitude" : "-73.73970831983783"
  },
  "mailing_office" : "81 MOTT AVENUE",
  "mstat" : "NY",
  "comp_phone" : "(516) 239-3543",
  "mail_city" : "INWOOD",
  "type" : "CL.1",
  "bus_name" : "LONG ISLAND'S FINEST LANDSCAPING"
}
, {
  "location_1" : {
    "latitude" : "40.55483674652701",
    "human_address" : "{\"address\":\"218 ABINGDON AVENUE\",\"city\":\"STATEN ISLAND\",\"state\":\"NY\",\"zip\":\"10308\"}",
    "needs_recoding" : false,
    "longitude" : "-74.15805256720114"
  },
  "mailing_office" : "218 ABINGDON AVENUE",
  "mstat" : "NY",
  "comp_phone" : "(718) 644-0958",
  "mail_city" : "STATEN ISLAND",
  "type" : "CL.1",
  "bus_name" : "LOUIS ANDRUZZI"
}
, {
  "location_1" : {
    "latitude" : "40.69637041236467",
    "human_address" : "{\"address\":\"87 14 129 STREET\",\"city\":\"RICHMOND HILL\",\"state\":\"NY\",\"zip\":\"11418\"}",
    "needs_recoding" : false,
    "longitude" : "-73.84031024991805"
  },
  "mailing_office" : "87-14 129 STREET 3J",
  "mstat" : "NY",
  "comp_phone" : "(718) 441-6996",
  "mail_city" : "RICHMOND HILL",
  "type" : "CL.1",
  "bus_name" : "LUIS A. UMANSOR"
}
, {
  "location_1" : {
    "latitude" : "40.919361708256076",
    "human_address" : "{\"address\":\"132 HORTON AVE\",\"city\":\"NEW ROCHELLE\",\"state\":\"NY\",\"zip\":\"10801\"}",
    "needs_recoding" : false,
    "longitude" : "-73.79291330182105"
  },
  "mailing_office" : "132 HORTON AVE",
  "mstat" : "NY",
  "comp_phone" : "(91) 457-6902",
  "mail_city" : "NEW ROCHELLE",
  "type" : "CL.1",
  "bus_name" : "LUIS GARCIA"
}
, {
  "location_1" : {
    "latitude" : "40.64995820455305",
    "human_address" : "{\"address\":\"515 41ST STREET\",\"city\":\"BROOKLYN\",\"state\":\"NY\",\"zip\":\"11232\"}",
    "needs_recoding" : false,
    "longitude" : "-74.00468277952935"
  },
  "mailing_office" : "515 41ST STREET",
  "mstat" : "NY",
  "comp_phone" : "(646) 523-1494",
  "mail_city" : "BROOKLYN",
  "type" : "CL.1",
  "bus_name" : "M & V LANDSCAPING INC."
}
, {
  "location_1" : {
    "latitude" : "40.710835098398114",
    "human_address" : "{\"address\":\"8063 GRENFELL STREET\",\"city\":\"KEW GARDENS\",\"state\":\"NY\",\"zip\":\"11415\"}",
    "needs_recoding" : false,
    "longitude" : "-73.83345475242432"
  },
  "mailing_office" : "8063 GRENFELL STREET",
  "mstat" : "NY",
  "comp_phone" : "(718) 441-9256",
  "mail_city" : "KEW GARDENS",
  "type" : "CL.1",
  "bus_name" : "M.J. TANTILLO LTD."
}
, {
  "location_1" : {
    "latitude" : "40.642821951695964",
    "human_address" : "{\"address\":\"1902 CORTELYOU ROAD\",\"city\":\"BROOKLYN\",\"state\":\"NY\",\"zip\":\"11226\"}",
    "needs_recoding" : false,
    "longitude" : "-73.96077913168973"
  },
  "mailing_office" : "1902 CORTELYOU ROAD APT. 3C",
  "mstat" : "NY",
  "comp_phone" : "(917) 553-3957",
  "mail_city" : "BROOKLYN",
  "type" : "CL.1",
  "bus_name" : "MACRINO MARGARITO BALBUENA- ORTEGA"
}
, {
  "location_1" : {
    "latitude" : "40.538701563137074",
    "human_address" : "{\"address\":\"894 SHELDON AVE\",\"city\":\"STATEN ISLAND\",\"state\":\"NY\",\"zip\":\"10309\"}",
    "needs_recoding" : false,
    "longitude" : "-74.20516000487213"
  },
  "mailing_office" : "894 SHELDON AVE.",
  "mstat" : "NY",
  "comp_phone" : "(718) 356-6441",
  "mail_city" : "STATEN ISLAND",
  "type" : "CL.1",
  "bus_name" : "MAGGI-O INC"
}
, {
  "location_1" : {
    "latitude" : "40.59131329547445",
    "human_address" : "{\"address\":\"64 APPLBY AVE\",\"city\":\"STATEN ISLAND\",\"state\":\"NY\",\"zip\":\"10305\"}",
    "needs_recoding" : false,
    "longitude" : "-74.07990909049754"
  },
  "mailing_office" : "64 APPLBY AVE",
  "mstat" : "NY",
  "comp_phone" : "(718) 987-5434",
  "mail_city" : "STATEN ISLAND",
  "type" : "CL.1",
  "bus_name" : "MALOY LANDSCAPING LLC"
}
, {
  "location_1" : {
    "latitude" : "40.62489669620243",
    "human_address" : "{\"address\":\"466 FIFTH AVENUE\",\"city\":\"CEDARHURST\",\"state\":\"NY\",\"zip\":\"11516\"}",
    "needs_recoding" : false,
    "longitude" : "-73.72832399367672"
  },
  "mailing_office" : "466 FIFTH AVENUE",
  "mstat" : "NY",
  "comp_phone" : "(516) 295-1183",
  "mail_city" : "CEDARHURST",
  "type" : "CL.1",
  "bus_name" : "MANUEL A. LABRA-URIBE"
}
, {
  "location_1" : {
    "latitude" : "40.7512997969481",
    "human_address" : "{\"address\":\"132 25 MAPLE AVENUE\",\"city\":\"FLUSHING\",\"state\":\"NY\",\"zip\":\"11355\"}",
    "needs_recoding" : false,
    "longitude" : "-73.82147854789662"
  },
  "mailing_office" : "132-25 MAPLE AVENUE APT 402",
  "mstat" : "NY",
  "comp_phone" : "(646) 462-9173",
  "mail_city" : "FLUSHING",
  "type" : "CL.1",
  "bus_name" : "MANUEL E. HERCULES"
}
, {
  "location_1" : {
    "latitude" : "40.90201378631093",
    "human_address" : "{\"address\":\"30 DRAKE AVENUE\",\"city\":\"NEW ROCHELLE\",\"state\":\"NY\",\"zip\":\"10805\"}",
    "needs_recoding" : false,
    "longitude" : "-73.78890232557035"
  },
  "mailing_office" : "30 DRAKE AVENUE",
  "mstat" : "NY",
  "comp_phone" : "(914) 636-0444",
  "mail_city" : "NEW ROCHELLE",
  "type" : "CL.1",
  "bus_name" : "MANUEL LOPEZ LANDSCAPING"
}
, {
  "location_1" : {
    "latitude" : "40.600614338480966",
    "human_address" : "{\"address\":\"10 41 MCBRIDE STREET\",\"city\":\"FAR ROCKAWAY\",\"state\":\"NY\",\"zip\":\"11691\"}",
    "needs_recoding" : false,
    "longitude" : "-73.76256777468302"
  },
  "mailing_office" : "10-41 MCBRIDE STREET",
  "mstat" : "NY",
  "comp_phone" : "(516) 263-7252",
  "mail_city" : "FAR ROCKAWAY",
  "type" : "CL.1",
  "bus_name" : "MANUEL ROMERO'S"
}
, {
  "location_1" : {
    "latitude" : "40.76862022064671",
    "human_address" : "{\"address\":\"38 08 149TH PLACE\",\"city\":\"FLUSHING\",\"state\":\"NY\",\"zip\":\"11354\"}",
    "needs_recoding" : false,
    "longitude" : "-73.82719028070687"
  },
  "mailing_office" : "38-08 149TH PLACE 2 FL.",
  "mstat" : "NY",
  "comp_phone" : "(212) 363-0028",
  "mail_city" : "FLUSHING",
  "type" : "CL.1",
  "bus_name" : "MANUEL SERVELLON LANDSCAPING"
}
, {
  "location_1" : {
    "latitude" : "40.92664621669343",
    "human_address" : "{\"address\":\"75 PORTMAN ROAD\",\"city\":\"NEW ROCHELLE\",\"state\":\"NY\",\"zip\":\"10801\"}",
    "needs_recoding" : false,
    "longitude" : "-73.77124863413519"
  },
  "mailing_office" : "75 PORTMAN ROAD",
  "mstat" : "NY",
  "comp_phone" : "(914) 636-4428",
  "mail_city" : "NEW ROCHELLE",
  "type" : "CL.1",
  "bus_name" : "MARIO BULFAMANTE & SONS LANDSCAPING INC"
}
, {
  "location_1" : {
    "latitude" : "40.667920262084124",
    "human_address" : "{\"address\":\"705 STOWE AVE\",\"city\":\"BALDWIN\",\"state\":\"NY\",\"zip\":\"11510\"}",
    "needs_recoding" : false,
    "longitude" : "-73.61125025190245"
  },
  "mailing_office" : "705 STOWE AVE.",
  "mstat" : "NY",
  "comp_phone" : "(516) 807-8179",
  "mail_city" : "BALDWIN",
  "type" : "CL.1",
  "bus_name" : "MARIO ERNESTO ESCOBAR-GARCIA/D.B.A. M ESCOBAR LANDSCAPING"
}
, {
  "location_1" : {
    "latitude" : "40.71311535449007",
    "human_address" : "{\"address\":\"159 14 84TH AVENUE\",\"city\":\"JAMAICA\",\"state\":\"NY\",\"zip\":\"11432\"}",
    "needs_recoding" : false,
    "longitude" : "-73.79282099978928"
  },
  "mailing_office" : "159-14 84TH AVENUE",
  "mstat" : "NY",
  "comp_phone" : "(718) 739-4903",
  "mail_city" : "JAMAICA",
  "type" : "CL.1",
  "bus_name" : "MARIO'S GREEN STAR LANDSCAPING CORP"
}
, {
  "location_1" : {
    "latitude" : "40.43376378531525",
    "human_address" : "{\"address\":\"10 ATHENS AVENUE\",\"city\":\"SOUTH AMBOY\",\"state\":\"NJ\",\"zip\":\"08879\"}",
    "needs_recoding" : false,
    "longitude" : "-74.29718115009013"
  },
  "mailing_office" : "10 ATHENS AVENUE",
  "mstat" : "NJ",
  "comp_phone" : "(718) 556-1769",
  "mail_city" : "SOUTH AMBOY",
  "type" : "CL.1",
  "bus_name" : "MARK BLACK"
}
, {
  "location_1" : {
    "latitude" : "40.862380664479645",
    "human_address" : "{\"address\":\"463 PULASKI ROAD\",\"city\":\"GREENLAWN\",\"state\":\"NY\",\"zip\":\"11740\"}",
    "needs_recoding" : false,
    "longitude" : "-73.3722374361754"
  },
  "mailing_office" : "463 PULASKI ROAD",
  "mstat" : "NY",
  "comp_phone" : "(631) 239-1361",
  "mail_city" : "GREENLAWN",
  "type" : "CL.1",
  "bus_name" : "MAROTTA LANDSCAPING, INC"
}
, {
  "location_1" : {
    "latitude" : "40.63186254502691",
    "human_address" : "{\"address\":\"122 76TH ST\",\"city\":\"BROOKLYN\",\"state\":\"NY\",\"zip\":\"11209\"}",
    "needs_recoding" : false,
    "longitude" : "-74.03282626130157"
  },
  "mailing_office" : "122 76TH ST",
  "mstat" : "NY",
  "comp_phone" : "(718) 857-7920",
  "mail_city" : "BROOKLYN",
  "type" : "CL.1",
  "bus_name" : "MARTAN PROPERTIES LLC"
}
, {
  "location_1" : {
    "latitude" : "40.616137299637046",
    "human_address" : "{\"address\":\"159 JEANETTE AVENUE\",\"city\":\"INWOOD\",\"state\":\"NY\",\"zip\":\"11096\"}",
    "needs_recoding" : false,
    "longitude" : "-73.75006960034523"
  },
  "mailing_office" : "159 JEANETTE AVENUE",
  "mstat" : "NY",
  "comp_phone" : "(516) 812-8343",
  "mail_city" : "INWOOD",
  "type" : "CL.1",
  "bus_name" : "MARTIR R. CANALES"
}
, {
  "location_1" : {
    "latitude" : "40.65974542483775",
    "human_address" : "{\"address\":\"123 BILTMORE BLVD\",\"city\":\"MASSAPEQUA\",\"state\":\"NY\",\"zip\":\"11758\"}",
    "needs_recoding" : false,
    "longitude" : "-73.46711591026656"
  },